{
  "labels": [
    {
      "name": "Africa",
      "lat": 2,
      "lng": 20,
      "type": "continent",
      "rank": 1
    },
    {
      "name": "Antarctica",
      "lat": -82,
      "lng": 0,
      "type": "continent",
      "rank": 1
    },
    {
      "name": "Asia",
      "lat": 45,
      "lng": 90,
      "type": "continent",
      "rank": 1
    },
    {
      "name": "Australia",
      "lat": -25,
      "lng": 135,
      "type": "continent",
      "rank": 1
    },
    {
      "name": "Europe",
      "lat": 54,
      "lng": 15,
      "type": "continent",
      "rank": 1
    },
    {
      "name": "North America",
      "lat": 45,
      "lng": -100,
      "type": "continent",
      "rank": 1
    },
    {
      "name": "South America",
      "lat": -15,
      "lng": -60,
      "type": "continent",
      "rank": 1
    },
    {
      "name": "Arctic Ocean",
      "lat": 83.9041,
      "lng": -5.8378,
      "type": "ocean",
      "rank": 1
    },
    {
      "name": "Atlantic Ocean",
      "lat": 31.9782,
      "lng": -35.351,
      "type": "ocean",
      "rank": 1
    },
    {
      "name": "Atlantic Ocean",
      "lat": -34.0069,
      "lng": -18.9168,
      "type": "ocean",
      "rank": 1
    },
    {
      "name": "Indian Ocean",
      "lat": -33.8561,
      "lng": 82.3165,
      "type": "ocean",
      "rank": 1
    },
    {
      "name": "Pacific Ocean",
      "lat": 20,
      "lng": -160,
      "type": "ocean",
      "rank": 1
    },
    {
      "name": "Southern Ocean",
      "lat": -65.418,
      "lng": -18.4129,
      "type": "ocean",
      "rank": 1
    },
    {
      "name": "Antarctica",
      "lat": -79.8432,
      "lng": 35.8855,
      "type": "country",
      "rank": 1
    },
    {
      "name": "Australia",
      "lat": -24.1295,
      "lng": 134.0497,
      "type": "country",
      "rank": 1
    },
    {
      "name": "Brazil",
      "lat": -12.0987,
      "lng": -49.5594,
      "type": "country",
      "rank": 1
    },
    {
      "name": "Canada",
      "lat": 60.3243,
      "lng": -101.9107,
      "type": "country",
      "rank": 1
    },
    {
      "name": "India",
      "lat": 22.6869,
      "lng": 79.3581,
      "type": "country",
      "rank": 1
    },
    {
      "name": "People's Republic of China",
      "lat": 32.4982,
      "lng": 106.3373,
      "type": "country",
      "rank": 1
    },
    {
      "name": "Russia",
      "lat": 58.2494,
      "lng": 44.6865,
      "type": "country",
      "rank": 1
    },
    {
      "name": "United States of America",
      "lat": 39.5385,
      "lng": -97.4826,
      "type": "country",
      "rank": 1
    },
    {
      "name": "Algeria",
      "lat": 27.3974,
      "lng": 2.8082,
      "type": "country",
      "rank": 2
    },
    {
      "name": "Angola",
      "lat": -12.1828,
      "lng": 17.9842,
      "type": "country",
      "rank": 2
    },
    {
      "name": "Argentina",
      "lat": -33.5012,
      "lng": -64.1733,
      "type": "country",
      "rank": 2
    },
    {
      "name": "Bolivia",
      "lat": -16.666,
      "lng": -64.5934,
      "type": "country",
      "rank": 2
    },
    {
      "name": "Chad",
      "lat": 15.143,
      "lng": 18.645,
      "type": "country",
      "rank": 2
    },
    {
      "name": "Colombia",
      "lat": 3.3731,
      "lng": -73.1743,
      "type": "country",
      "rank": 2
    },
    {
      "name": "Democratic Republic of the Congo",
      "lat": -1.8582,
      "lng": 23.4588,
      "type": "country",
      "rank": 2
    },
    {
      "name": "Egypt",
      "lat": 26.1862,
      "lng": 29.4458,
      "type": "country",
      "rank": 2
    },
    {
      "name": "Ethiopia",
      "lat": 8.0328,
      "lng": 39.0886,
      "type": "country",
      "rank": 2
    },
    {
      "name": "Greenland",
      "lat": 74.3194,
      "lng": -39.3353,
      "type": "country",
      "rank": 2
    },
    {
      "name": "Indonesia",
      "lat": -0.9544,
      "lng": 101.8929,
      "type": "country",
      "rank": 2
    },
    {
      "name": "Iran",
      "lat": 32.1662,
      "lng": 54.9315,
      "type": "country",
      "rank": 2
    },
    {
      "name": "Kazakhstan",
      "lat": 49.0541,
      "lng": 68.6855,
      "type": "country",
      "rank": 2
    },
    {
      "name": "Libya",
      "lat": 26.6389,
      "lng": 18.011,
      "type": "country",
      "rank": 2
    },
    {
      "name": "Mali",
      "lat": 18.6927,
      "lng": -2.0385,
      "type": "country",
      "rank": 2
    },
    {
      "name": "Mauritania",
      "lat": 19.5871,
      "lng": -9.7403,
      "type": "country",
      "rank": 2
    },
    {
      "name": "Mexico",
      "lat": 23.92,
      "lng": -102.2894,
      "type": "country",
      "rank": 2
    },
    {
      "name": "Mongolia",
      "lat": 45.9975,
      "lng": 104.1504,
      "type": "country",
      "rank": 2
    },
    {
      "name": "Niger",
      "lat": 17.4462,
      "lng": 9.5044,
      "type": "country",
      "rank": 2
    },
    {
      "name": "Peru",
      "lat": -12.9767,
      "lng": -72.9002,
      "type": "country",
      "rank": 2
    },
    {
      "name": "Saudi Arabia",
      "lat": 23.8069,
      "lng": 44.6996,
      "type": "country",
      "rank": 2
    },
    {
      "name": "South Africa",
      "lat": -29.7088,
      "lng": 23.6657,
      "type": "country",
      "rank": 2
    },
    {
      "name": "Sudan",
      "lat": 16.3307,
      "lng": 29.2607,
      "type": "country",
      "rank": 2
    },
    {
      "name": "Afghanistan",
      "lat": 34.1643,
      "lng": 66.4966,
      "type": "country",
      "rank": 3
    },
    {
      "name": "Botswana",
      "lat": -22.1026,
      "lng": 24.1792,
      "type": "country",
      "rank": 3
    },
    {
      "name": "Cameroon",
      "lat": 4.585,
      "lng": 12.4735,
      "type": "country",
      "rank": 3
    },
    {
      "name": "Central African Republic",
      "lat": 6.9897,
      "lng": 20.9069,
      "type": "country",
      "rank": 3
    },
    {
      "name": "Chile",
      "lat": -38.1518,
      "lng": -72.3189,
      "type": "country",
      "rank": 3
    },
    {
      "name": "Finland",
      "lat": 63.2524,
      "lng": 27.2764,
      "type": "country",
      "rank": 3
    },
    {
      "name": "France",
      "lat": 46.6961,
      "lng": 2.5523,
      "type": "country",
      "rank": 3
    },
    {
      "name": "Germany",
      "lat": 50.9617,
      "lng": 9.6783,
      "type": "country",
      "rank": 3
    },
    {
      "name": "Iraq",
      "lat": 33.094,
      "lng": 43.2618,
      "type": "country",
      "rank": 3
    },
    {
      "name": "Italy",
      "lat": 44.7325,
      "lng": 11.0769,
      "type": "country",
      "rank": 3
    },
    {
      "name": "Ivory Coast",
      "lat": 7.4914,
      "lng": -5.5686,
      "type": "country",
      "rank": 3
    },
    {
      "name": "Japan",
      "lat": 36.1425,
      "lng": 138.4422,
      "type": "country",
      "rank": 3
    },
    {
      "name": "Kenya",
      "lat": 0.549,
      "lng": 37.9076,
      "type": "country",
      "rank": 3
    },
    {
      "name": "Madagascar",
      "lat": -18.6283,
      "lng": 46.7042,
      "type": "country",
      "rank": 3
    },
    {
      "name": "Malaysia",
      "lat": 2.5287,
      "lng": 113.8371,
      "type": "country",
      "rank": 3
    },
    {
      "name": "Morocco",
      "lat": 31.6507,
      "lng": -7.1873,
      "type": "country",
      "rank": 3
    },
    {
      "name": "Mozambique",
      "lat": -13.9432,
      "lng": 37.8379,
      "type": "country",
      "rank": 3
    },
    {
      "name": "Myanmar",
      "lat": 21.5739,
      "lng": 95.8045,
      "type": "country",
      "rank": 3
    },
    {
      "name": "Namibia",
      "lat": -20.5753,
      "lng": 17.1082,
      "type": "country",
      "rank": 3
    },
    {
      "name": "Nigeria",
      "lat": 9.4398,
      "lng": 7.5032,
      "type": "country",
      "rank": 3
    },
    {
      "name": "Norway",
      "lat": 61.3571,
      "lng": 9.68,
      "type": "country",
      "rank": 3
    },
    {
      "name": "Oman",
      "lat": 22.1204,
      "lng": 57.3366,
      "type": "country",
      "rank": 3
    },
    {
      "name": "Pakistan",
      "lat": 29.3284,
      "lng": 68.5456,
      "type": "country",
      "rank": 3
    },
    {
      "name": "Papua New Guinea",
      "lat": -5.6953,
      "lng": 143.9102,
      "type": "country",
      "rank": 3
    },
    {
      "name": "Paraguay",
      "lat": -21.6745,
      "lng": -60.1464,
      "type": "country",
      "rank": 3
    },
    {
      "name": "Poland",
      "lat": 51.9903,
      "lng": 19.4905,
      "type": "country",
      "rank": 3
    },
    {
      "name": "Republic of the Congo",
      "lat": 0.1423,
      "lng": 15.9005,
      "type": "country",
      "rank": 3
    },
    {
      "name": "Somalia",
      "lat": 3.5689,
      "lng": 45.1924,
      "type": "country",
      "rank": 3
    },
    {
      "name": "South Sudan",
      "lat": 7.2305,
      "lng": 30.3902,
      "type": "country",
      "rank": 3
    },
    {
      "name": "Spain",
      "lat": 40.091,
      "lng": -3.4647,
      "type": "country",
      "rank": 3
    },
    {
      "name": "Sweden",
      "lat": 65.8592,
      "lng": 19.0171,
      "type": "country",
      "rank": 3
    },
    {
      "name": "Tanzania",
      "lat": -6.0519,
      "lng": 34.9592,
      "type": "country",
      "rank": 3
    },
    {
      "name": "Thailand",
      "lat": 15.4597,
      "lng": 101.0732,
      "type": "country",
      "rank": 3
    },
    {
      "name": "Turkey",
      "lat": 39.3454,
      "lng": 34.5083,
      "type": "country",
      "rank": 3
    },
    {
      "name": "Turkmenistan",
      "lat": 39.8552,
      "lng": 58.6766,
      "type": "country",
      "rank": 3
    },
    {
      "name": "Ukraine",
      "lat": 49.7247,
      "lng": 32.1409,
      "type": "country",
      "rank": 3
    },
    {
      "name": "Uzbekistan",
      "lat": 41.6936,
      "lng": 64.0054,
      "type": "country",
      "rank": 3
    },
    {
      "name": "Venezuela",
      "lat": 7.1825,
      "lng": -64.5994,
      "type": "country",
      "rank": 3
    },
    {
      "name": "Vietnam",
      "lat": 21.7154,
      "lng": 105.3873,
      "type": "country",
      "rank": 3
    },
    {
      "name": "Yemen",
      "lat": 15.3282,
      "lng": 45.8744,
      "type": "country",
      "rank": 3
    },
    {
      "name": "Zambia",
      "lat": -14.6608,
      "lng": 26.3953,
      "type": "country",
      "rank": 3
    },
    {
      "name": "Zimbabwe",
      "lat": -18.9116,
      "lng": 29.9254,
      "type": "country",
      "rank": 3
    },
    {
      "name": "Austria",
      "lat": 47.5189,
      "lng": 14.1305,
      "type": "country",
      "rank": 4
    },
    {
      "name": "Azerbaijan",
      "lat": 40.4024,
      "lng": 47.211,
      "type": "country",
      "rank": 4
    },
    {
      "name": "Bangladesh",
      "lat": 24.215,
      "lng": 89.685,
      "type": "country",
      "rank": 4
    },
    {
      "name": "Belarus",
      "lat": 53.8219,
      "lng": 28.4177,
      "type": "country",
      "rank": 4
    },
    {
      "name": "Benin",
      "lat": 10.3248,
      "lng": 2.352,
      "type": "country",
      "rank": 4
    },
    {
      "name": "Bosnia and Herzegovina",
      "lat": 44.0911,
      "lng": 18.0684,
      "type": "country",
      "rank": 4
    },
    {
      "name": "Bulgaria",
      "lat": 42.5088,
      "lng": 25.1571,
      "type": "country",
      "rank": 4
    },
    {
      "name": "Burkina Faso",
      "lat": 12.673,
      "lng": -1.3639,
      "type": "country",
      "rank": 4
    },
    {
      "name": "Cambodia",
      "lat": 12.6476,
      "lng": 104.5049,
      "type": "country",
      "rank": 4
    },
    {
      "name": "Costa Rica",
      "lat": 10.0651,
      "lng": -84.0779,
      "type": "country",
      "rank": 4
    },
    {
      "name": "Croatia",
      "lat": 45.8058,
      "lng": 16.3724,
      "type": "country",
      "rank": 4
    },
    {
      "name": "Cuba",
      "lat": 21.334,
      "lng": -77.9759,
      "type": "country",
      "rank": 4
    },
    {
      "name": "Czech Republic",
      "lat": 49.8824,
      "lng": 15.3776,
      "type": "country",
      "rank": 4
    },
    {
      "name": "Ecuador",
      "lat": -1.2591,
      "lng": -78.1884,
      "type": "country",
      "rank": 4
    },
    {
      "name": "Eritrea",
      "lat": 15.7874,
      "lng": 38.2856,
      "type": "country",
      "rank": 4
    },
    {
      "name": "Gabon",
      "lat": -0.4377,
      "lng": 11.8359,
      "type": "country",
      "rank": 4
    },
    {
      "name": "Georgia",
      "lat": 41.8701,
      "lng": 43.7357,
      "type": "country",
      "rank": 4
    },
    {
      "name": "Ghana",
      "lat": 7.7176,
      "lng": -1.0369,
      "type": "country",
      "rank": 4
    },
    {
      "name": "Greece",
      "lat": 39.4928,
      "lng": 21.7257,
      "type": "country",
      "rank": 4
    },
    {
      "name": "Guatemala",
      "lat": 14.9821,
      "lng": -90.4971,
      "type": "country",
      "rank": 4
    },
    {
      "name": "Guinea",
      "lat": 10.6185,
      "lng": -10.0164,
      "type": "country",
      "rank": 4
    },
    {
      "name": "Guyana",
      "lat": 5.1243,
      "lng": -58.9426,
      "type": "country",
      "rank": 4
    },
    {
      "name": "Honduras",
      "lat": 14.7948,
      "lng": -86.8876,
      "type": "country",
      "rank": 4
    },
    {
      "name": "Hungary",
      "lat": 47.0868,
      "lng": 19.4479,
      "type": "country",
      "rank": 4
    },
    {
      "name": "Iceland",
      "lat": 64.7793,
      "lng": -18.6737,
      "type": "country",
      "rank": 4
    },
    {
      "name": "Ireland",
      "lat": 53.0787,
      "lng": -7.7986,
      "type": "country",
      "rank": 4
    },
    {
      "name": "Jordan",
      "lat": 30.805,
      "lng": 36.376,
      "type": "country",
      "rank": 4
    },
    {
      "name": "Kyrgyzstan",
      "lat": 41.6685,
      "lng": 74.5326,
      "type": "country",
      "rank": 4
    },
    {
      "name": "Laos",
      "lat": 19.4318,
      "lng": 102.5339,
      "type": "country",
      "rank": 4
    },
    {
      "name": "Latvia",
      "lat": 57.0669,
      "lng": 25.4587,
      "type": "country",
      "rank": 4
    },
    {
      "name": "Liberia",
      "lat": 6.4472,
      "lng": -9.4604,
      "type": "country",
      "rank": 4
    },
    {
      "name": "Lithuania",
      "lat": 55.1037,
      "lng": 24.0899,
      "type": "country",
      "rank": 4
    },
    {
      "name": "Malawi",
      "lat": -13.3867,
      "lng": 33.6081,
      "type": "country",
      "rank": 4
    },
    {
      "name": "Nepal",
      "lat": 28.2979,
      "lng": 83.6399,
      "type": "country",
      "rank": 4
    },
    {
      "name": "New Zealand",
      "lat": -39.759,
      "lng": 172.787,
      "type": "country",
      "rank": 4
    },
    {
      "name": "Nicaragua",
      "lat": 12.6707,
      "lng": -85.0693,
      "type": "country",
      "rank": 4
    },
    {
      "name": "North Korea",
      "lat": 39.8853,
      "lng": 126.4445,
      "type": "country",
      "rank": 4
    },
    {
      "name": "Panama",
      "lat": 8.722,
      "lng": -80.3521,
      "type": "country",
      "rank": 4
    },
    {
      "name": "Philippines",
      "lat": 11.198,
      "lng": 122.465,
      "type": "country",
      "rank": 4
    },
    {
      "name": "Portugal",
      "lat": 39.6067,
      "lng": -8.2718,
      "type": "country",
      "rank": 4
    },
    {
      "name": "Romania",
      "lat": 45.7332,
      "lng": 24.9726,
      "type": "country",
      "rank": 4
    },
    {
      "name": "Senegal",
      "lat": 15.1381,
      "lng": -14.7786,
      "type": "country",
      "rank": 4
    },
    {
      "name": "Serbia",
      "lat": 44.1899,
      "lng": 20.788,
      "type": "country",
      "rank": 4
    },
    {
      "name": "Sierra Leone",
      "lat": 8.6174,
      "lng": -11.7637,
      "type": "country",
      "rank": 4
    },
    {
      "name": "Somaliland",
      "lat": 9.4439,
      "lng": 46.7316,
      "type": "country",
      "rank": 4
    },
    {
      "name": "South Korea",
      "lat": 36.3849,
      "lng": 128.1295,
      "type": "country",
      "rank": 4
    },
    {
      "name": "Sri Lanka",
      "lat": 7.5811,
      "lng": 80.7048,
      "type": "country",
      "rank": 4
    },
    {
      "name": "Suriname",
      "lat": 4.144,
      "lng": -55.9109,
      "type": "country",
      "rank": 4
    },
    {
      "name": "Syria",
      "lat": 35.0066,
      "lng": 38.2778,
      "type": "country",
      "rank": 4
    },
    {
      "name": "Tajikistan",
      "lat": 38.1998,
      "lng": 72.5873,
      "type": "country",
      "rank": 4
    },
    {
      "name": "Togo",
      "lat": 8.8072,
      "lng": 1.0581,
      "type": "country",
      "rank": 4
    },
    {
      "name": "Tunisia",
      "lat": 33.6873,
      "lng": 9.0079,
      "type": "country",
      "rank": 4
    },
    {
      "name": "Uganda",
      "lat": 1.9726,
      "lng": 32.9486,
      "type": "country",
      "rank": 4
    },
    {
      "name": "United Arab Emirates",
      "lat": 23.4663,
      "lng": 54.5473,
      "type": "country",
      "rank": 4
    },
    {
      "name": "United Kingdom",
      "lat": 54.4027,
      "lng": -2.1163,
      "type": "country",
      "rank": 4
    },
    {
      "name": "Uruguay",
      "lat": -32.9611,
      "lng": -55.9669,
      "type": "country",
      "rank": 4
    },
    {
      "name": "Western Sahara",
      "lat": 23.9676,
      "lng": -12.6303,
      "type": "country",
      "rank": 4
    },
    {
      "name": "Akrotiri Sovereign Base Area",
      "lat": 34.6008,
      "lng": 32.979,
      "type": "country",
      "rank": 5
    },
    {
      "name": "Albania",
      "lat": 40.6549,
      "lng": 20.1138,
      "type": "country",
      "rank": 5
    },
    {
      "name": "American Samoa",
      "lat": -14.3267,
      "lng": -170.7472,
      "type": "country",
      "rank": 5
    },
    {
      "name": "Andorra",
      "lat": 42.5476,
      "lng": 1.5394,
      "type": "country",
      "rank": 5
    },
    {
      "name": "Anguilla",
      "lat": 18.243,
      "lng": -63.0264,
      "type": "country",
      "rank": 5
    },
    {
      "name": "Antigua and Barbuda",
      "lat": 17.3522,
      "lng": -61.7906,
      "type": "country",
      "rank": 5
    },
    {
      "name": "Armenia",
      "lat": 40.4591,
      "lng": 44.8006,
      "type": "country",
      "rank": 5
    },
    {
      "name": "Aruba",
      "lat": 12.5174,
      "lng": -69.9728,
      "type": "country",
      "rank": 5
    },
    {
      "name": "Ashmore and Cartier Islands",
      "lat": -12.4326,
      "lng": 123.5864,
      "type": "country",
      "rank": 5
    },
    {
      "name": "Australian Indian Ocean Territories",
      "lat": -10.4908,
      "lng": 105.6726,
      "type": "country",
      "rank": 5
    },
    {
      "name": "Bahrain",
      "lat": 26.056,
      "lng": 50.5548,
      "type": "country",
      "rank": 5
    },
    {
      "name": "Baikonur",
      "lat": 45.9783,
      "lng": 63.3839,
      "type": "country",
      "rank": 5
    },
    {
      "name": "Bajo Nuevo Bank",
      "lat": 15.7916,
      "lng": -79.8458,
      "type": "country",
      "rank": 5
    },
    {
      "name": "Barbados",
      "lat": 13.1637,
      "lng": -59.569,
      "type": "country",
      "rank": 5
    },
    {
      "name": "Belgium",
      "lat": 50.7854,
      "lng": 4.8004,
      "type": "country",
      "rank": 5
    },
    {
      "name": "Belize",
      "lat": 17.2021,
      "lng": -88.713,
      "type": "country",
      "rank": 5
    },
    {
      "name": "Bermuda",
      "lat": 32.2966,
      "lng": -64.7636,
      "type": "country",
      "rank": 5
    },
    {
      "name": "Bhutan",
      "lat": 27.5367,
      "lng": 90.0403,
      "type": "country",
      "rank": 5
    },
    {
      "name": "Bir Tawil",
      "lat": 21.8604,
      "lng": 33.6734,
      "type": "country",
      "rank": 5
    },
    {
      "name": "Brazilian Island",
      "lat": -30.1876,
      "lng": -57.623,
      "type": "country",
      "rank": 5
    },
    {
      "name": "British Indian Ocean Territory",
      "lat": -6.1908,
      "lng": 71.3483,
      "type": "country",
      "rank": 5
    },
    {
      "name": "British Virgin Islands",
      "lat": 18.4266,
      "lng": -64.6366,
      "type": "country",
      "rank": 5
    },
    {
      "name": "Brunei",
      "lat": 4.4483,
      "lng": 114.5519,
      "type": "country",
      "rank": 5
    },
    {
      "name": "Burundi",
      "lat": -3.3328,
      "lng": 29.9171,
      "type": "country",
      "rank": 5
    },
    {
      "name": "Cape Verde",
      "lat": 15.0748,
      "lng": -23.6394,
      "type": "country",
      "rank": 5
    },
    {
      "name": "Cayman Islands",
      "lat": 19.3199,
      "lng": -81.2405,
      "type": "country",
      "rank": 5
    },
    {
      "name": "Clipperton Island",
      "lat": 10.2973,
      "lng": -109.2204,
      "type": "country",
      "rank": 5
    },
    {
      "name": "Comoros",
      "lat": -11.7277,
      "lng": 43.3181,
      "type": "country",
      "rank": 5
    },
    {
      "name": "Cook Islands",
      "lat": -21.216,
      "lng": -159.7857,
      "type": "country",
      "rank": 5
    },
    {
      "name": "Coral Sea Islands",
      "lat": -21.0293,
      "lng": 154.3906,
      "type": "country",
      "rank": 5
    },
    {
      "name": "Curaçao",
      "lat": 12.145,
      "lng": -68.9206,
      "type": "country",
      "rank": 5
    },
    {
      "name": "Cyprus",
      "lat": 34.9133,
      "lng": 33.0842,
      "type": "country",
      "rank": 5
    },
    {
      "name": "Denmark",
      "lat": 55.967,
      "lng": 9.0182,
      "type": "country",
      "rank": 5
    },
    {
      "name": "Dhekelia Cantonment",
      "lat": 35.011,
      "lng": 33.7906,
      "type": "country",
      "rank": 5
    },
    {
      "name": "Djibouti",
      "lat": 11.9763,
      "lng": 42.4988,
      "type": "country",
      "rank": 5
    },
    {
      "name": "Dominica",
      "lat": 15.4588,
      "lng": -61.345,
      "type": "country",
      "rank": 5
    },
    {
      "name": "Dominican Republic",
      "lat": 19.1041,
      "lng": -70.654,
      "type": "country",
      "rank": 5
    },
    {
      "name": "East Timor",
      "lat": -8.8037,
      "lng": 125.8547,
      "type": "country",
      "rank": 5
    },
    {
      "name": "El Salvador",
      "lat": 13.6854,
      "lng": -88.8901,
      "type": "country",
      "rank": 5
    },
    {
      "name": "Equatorial Guinea",
      "lat": 2.333,
      "lng": 8.9902,
      "type": "country",
      "rank": 5
    },
    {
      "name": "Estonia",
      "lat": 58.7249,
      "lng": 25.8671,
      "type": "country",
      "rank": 5
    },
    {
      "name": "Eswatini",
      "lat": -26.5337,
      "lng": 31.4673,
      "type": "country",
      "rank": 5
    },
    {
      "name": "Falkland Islands",
      "lat": -51.6089,
      "lng": -58.7386,
      "type": "country",
      "rank": 5
    },
    {
      "name": "Faroe Islands",
      "lat": 62.1856,
      "lng": -7.0584,
      "type": "country",
      "rank": 5
    },
    {
      "name": "Federated States of Micronesia",
      "lat": 6.8876,
      "lng": 158.234,
      "type": "country",
      "rank": 5
    },
    {
      "name": "Fiji",
      "lat": -17.8261,
      "lng": 177.9754,
      "type": "country",
      "rank": 5
    },
    {
      "name": "French Polynesia",
      "lat": -17.6281,
      "lng": -149.4616,
      "type": "country",
      "rank": 5
    },
    {
      "name": "French Southern and Antarctic Lands",
      "lat": -49.3037,
      "lng": 69.1221,
      "type": "country",
      "rank": 5
    },
    {
      "name": "Gibraltar",
      "lat": 36.1294,
      "lng": -5.3467,
      "type": "country",
      "rank": 5
    },
    {
      "name": "Grenada",
      "lat": 12.1132,
      "lng": -61.6805,
      "type": "country",
      "rank": 5
    },
    {
      "name": "Guam",
      "lat": 13.3542,
      "lng": 144.7036,
      "type": "country",
      "rank": 5
    },
    {
      "name": "Guantanamo Bay Naval Base",
      "lat": 19.9184,
      "lng": -75.1173,
      "type": "country",
      "rank": 5
    },
    {
      "name": "Guernsey",
      "lat": 49.4635,
      "lng": -2.5617,
      "type": "country",
      "rank": 5
    },
    {
      "name": "Guinea-Bissau",
      "lat": 12.1637,
      "lng": -14.5241,
      "type": "country",
      "rank": 5
    },
    {
      "name": "Haiti",
      "lat": 19.2638,
      "lng": -72.2241,
      "type": "country",
      "rank": 5
    },
    {
      "name": "Heard Island and McDonald Islands",
      "lat": -53.1035,
      "lng": 73.5052,
      "type": "country",
      "rank": 5
    },
    {
      "name": "Hong Kong",
      "lat": 22.4488,
      "lng": 114.0978,
      "type": "country",
      "rank": 5
    },
    {
      "name": "Isle of Man",
      "lat": 54.2208,
      "lng": -4.5301,
      "type": "country",
      "rank": 5
    },
    {
      "name": "Israel",
      "lat": 30.9111,
      "lng": 34.8479,
      "type": "country",
      "rank": 5
    },
    {
      "name": "Jamaica",
      "lat": 18.1371,
      "lng": -77.3188,
      "type": "country",
      "rank": 5
    },
    {
      "name": "Jersey",
      "lat": 49.2208,
      "lng": -2.0901,
      "type": "country",
      "rank": 5
    },
    {
      "name": "Kiribati",
      "lat": 1.8204,
      "lng": -157.3846,
      "type": "country",
      "rank": 5
    },
    {
      "name": "Kosovo",
      "lat": 42.5936,
      "lng": 20.8607,
      "type": "country",
      "rank": 5
    },
    {
      "name": "Kuwait",
      "lat": 29.4136,
      "lng": 47.314,
      "type": "country",
      "rank": 5
    },
    {
      "name": "Lebanon",
      "lat": 34.1334,
      "lng": 35.9929,
      "type": "country",
      "rank": 5
    },
    {
      "name": "Lesotho",
      "lat": -29.4802,
      "lng": 28.2466,
      "type": "country",
      "rank": 5
    },
    {
      "name": "Liechtenstein",
      "lat": 47.1114,
      "lng": 9.5594,
      "type": "country",
      "rank": 5
    },
    {
      "name": "Luxembourg",
      "lat": 49.7337,
      "lng": 6.0776,
      "type": "country",
      "rank": 5
    },
    {
      "name": "Macau",
      "lat": 22.1297,
      "lng": 113.556,
      "type": "country",
      "rank": 5
    },
    {
      "name": "Maldives",
      "lat": 4.1744,
      "lng": 73.5076,
      "type": "country",
      "rank": 5
    },
    {
      "name": "Malta",
      "lat": 35.8929,
      "lng": 14.433,
      "type": "country",
      "rank": 5
    },
    {
      "name": "Marshall Islands",
      "lat": 7.0826,
      "lng": 171.1936,
      "type": "country",
      "rank": 5
    },
    {
      "name": "Mauritius",
      "lat": -20.2995,
      "lng": 57.5658,
      "type": "country",
      "rank": 5
    },
    {
      "name": "Moldova",
      "lat": 47.435,
      "lng": 28.4879,
      "type": "country",
      "rank": 5
    },
    {
      "name": "Monaco",
      "lat": 43.7397,
      "lng": 7.3983,
      "type": "country",
      "rank": 5
    },
    {
      "name": "Montenegro",
      "lat": 42.8031,
      "lng": 19.1437,
      "type": "country",
      "rank": 5
    },
    {
      "name": "Montserrat",
      "lat": 16.7372,
      "lng": -62.1883,
      "type": "country",
      "rank": 5
    },
    {
      "name": "Nauru",
      "lat": -0.5203,
      "lng": 166.9326,
      "type": "country",
      "rank": 5
    },
    {
      "name": "Netherlands",
      "lat": 52.4222,
      "lng": 5.6114,
      "type": "country",
      "rank": 5
    },
    {
      "name": "New Caledonia",
      "lat": -21.0647,
      "lng": 165.084,
      "type": "country",
      "rank": 5
    },
    {
      "name": "Niue",
      "lat": -19.046,
      "lng": -169.8626,
      "type": "country",
      "rank": 5
    },
    {
      "name": "Norfolk Island",
      "lat": -29.033,
      "lng": 167.9545,
      "type": "country",
      "rank": 5
    },
    {
      "name": "North Macedonia",
      "lat": 41.5582,
      "lng": 21.5558,
      "type": "country",
      "rank": 5
    },
    {
      "name": "Northern Mariana Islands",
      "lat": 15.1882,
      "lng": 145.7344,
      "type": "country",
      "rank": 5
    },
    {
      "name": "Palau",
      "lat": 7.5183,
      "lng": 134.5802,
      "type": "country",
      "rank": 5
    },
    {
      "name": "Palestine",
      "lat": 32.0474,
      "lng": 35.2913,
      "type": "country",
      "rank": 5
    },
    {
      "name": "Pitcairn Islands",
      "lat": -24.3646,
      "lng": -128.3175,
      "type": "country",
      "rank": 5
    },
    {
      "name": "Puerto Rico",
      "lat": 18.2347,
      "lng": -66.4811,
      "type": "country",
      "rank": 5
    },
    {
      "name": "Qatar",
      "lat": 25.2374,
      "lng": 51.1435,
      "type": "country",
      "rank": 5
    },
    {
      "name": "Rwanda",
      "lat": -1.8972,
      "lng": 30.1039,
      "type": "country",
      "rank": 5
    },
    {
      "name": "Saint Barthélemy",
      "lat": 17.902,
      "lng": -62.8332,
      "type": "country",
      "rank": 5
    },
    {
      "name": "Saint Helena",
      "lat": -15.9505,
      "lng": -5.7126,
      "type": "country",
      "rank": 5
    },
    {
      "name": "Saint Kitts and Nevis",
      "lat": 17.3366,
      "lng": -62.758,
      "type": "country",
      "rank": 5
    },
    {
      "name": "Saint Lucia",
      "lat": 13.8924,
      "lng": -60.9801,
      "type": "country",
      "rank": 5
    },
    {
      "name": "Saint Martin",
      "lat": 18.0813,
      "lng": -63.0494,
      "type": "country",
      "rank": 5
    },
    {
      "name": "Saint Pierre and Miquelon",
      "lat": 47.0403,
      "lng": -56.3324,
      "type": "country",
      "rank": 5
    },
    {
      "name": "Saint Vincent and the Grenadines",
      "lat": 13.0879,
      "lng": -61.3359,
      "type": "country",
      "rank": 5
    },
    {
      "name": "Samoa",
      "lat": -13.6391,
      "lng": -172.4382,
      "type": "country",
      "rank": 5
    },
    {
      "name": "San Marino",
      "lat": 43.9339,
      "lng": 12.4412,
      "type": "country",
      "rank": 5
    },
    {
      "name": "Scarborough Shoal",
      "lat": 15.152,
      "lng": 117.7538,
      "type": "country",
      "rank": 5
    },
    {
      "name": "Serranilla Bank",
      "lat": 15.8643,
      "lng": -78.6382,
      "type": "country",
      "rank": 5
    },
    {
      "name": "Seychelles",
      "lat": -4.6767,
      "lng": 55.4802,
      "type": "country",
      "rank": 5
    },
    {
      "name": "Siachen Glacier",
      "lat": 35.3406,
      "lng": 77.1296,
      "type": "country",
      "rank": 5
    },
    {
      "name": "Singapore",
      "lat": 1.3666,
      "lng": 103.8169,
      "type": "country",
      "rank": 5
    },
    {
      "name": "Sint Maarten",
      "lat": 18.0409,
      "lng": -63.0701,
      "type": "country",
      "rank": 5
    },
    {
      "name": "Slovakia",
      "lat": 48.734,
      "lng": 19.0499,
      "type": "country",
      "rank": 5
    },
    {
      "name": "Slovenia",
      "lat": 46.0608,
      "lng": 14.9153,
      "type": "country",
      "rank": 5
    },
    {
      "name": "Solomon Islands",
      "lat": -8.0295,
      "lng": 159.1705,
      "type": "country",
      "rank": 5
    },
    {
      "name": "South Georgia and the South Sandwich Islands",
      "lat": -55.6834,
      "lng": -31.0632,
      "type": "country",
      "rank": 5
    },
    {
      "name": "Southern Patagonian Ice Field",
      "lat": -49.511,
      "lng": -73.3138,
      "type": "country",
      "rank": 5
    },
    {
      "name": "Switzerland",
      "lat": 46.7191,
      "lng": 7.464,
      "type": "country",
      "rank": 5
    },
    {
      "name": "São Tomé and Príncipe",
      "lat": 0.9709,
      "lng": 7.021,
      "type": "country",
      "rank": 5
    },
    {
      "name": "Taiwan",
      "lat": 23.6524,
      "lng": 120.8682,
      "type": "country",
      "rank": 5
    },
    {
      "name": "The Bahamas",
      "lat": 26.4018,
      "lng": -77.1467,
      "type": "country",
      "rank": 5
    },
    {
      "name": "The Gambia",
      "lat": 13.6417,
      "lng": -14.9983,
      "type": "country",
      "rank": 5
    },
    {
      "name": "Tonga",
      "lat": -21.21,
      "lng": -175.163,
      "type": "country",
      "rank": 5
    },
    {
      "name": "Trinidad and Tobago",
      "lat": 10.9989,
      "lng": -60.9184,
      "type": "country",
      "rank": 5
    },
    {
      "name": "Turkish Republic of Northern Cyprus",
      "lat": 35.2161,
      "lng": 33.6924,
      "type": "country",
      "rank": 5
    },
    {
      "name": "Turks and Caicos Islands",
      "lat": 21.8166,
      "lng": -71.7527,
      "type": "country",
      "rank": 5
    },
    {
      "name": "Tuvalu",
      "lat": -8.5137,
      "lng": 179.2096,
      "type": "country",
      "rank": 5
    },
    {
      "name": "United Nations Buffer Zone in Cyprus",
      "lat": 35.1407,
      "lng": 33.2881,
      "type": "country",
      "rank": 5
    },
    {
      "name": "United States Minor Outlying Islands",
      "lat": 19.2857,
      "lng": 166.6445,
      "type": "country",
      "rank": 5
    },
    {
      "name": "United States Virgin Islands",
      "lat": 17.7467,
      "lng": -64.7792,
      "type": "country",
      "rank": 5
    },
    {
      "name": "Vanuatu",
      "lat": -15.3715,
      "lng": 166.9088,
      "type": "country",
      "rank": 5
    },
    {
      "name": "Vatican City",
      "lat": 41.9033,
      "lng": 12.4534,
      "type": "country",
      "rank": 5
    },
    {
      "name": "Wake Island",
      "lat": 10.7295,
      "lng": 115.8196,
      "type": "country",
      "rank": 5
    },
    {
      "name": "Wallis and Futuna",
      "lat": -14.2864,
      "lng": -178.1374,
      "type": "country",
      "rank": 5
    },
    {
      "name": "Åland",
      "lat": 60.1565,
      "lng": 19.8697,
      "type": "country",
      "rank": 5
    },
    {
      "name": "Brasília",
      "lat": -15.7814,
      "lng": -47.918,
      "type": "capital",
      "rank": 1,
      "country": "Brazil",
      "national": true
    },
    {
      "name": "Istanbul",
      "lat": 41.0176,
      "lng": 28.9743,
      "type": "capital",
      "rank": 1,
      "country": "Turkey"
    },
    {
      "name": "Karachi",
      "lat": 24.8719,
      "lng": 66.9881,
      "type": "capital",
      "rank": 1,
      "country": "Pakistan"
    },
    {
      "name": "Kolkata",
      "lat": 22.5696,
      "lng": 88.3691,
      "type": "capital",
      "rank": 1,
      "country": "India"
    },
    {
      "name": "Moscow",
      "lat": 55.7541,
      "lng": 37.6136,
      "type": "capital",
      "rank": 1,
      "country": "Russia",
      "national": true
    },
    {
      "name": "Mumbai",
      "lat": 19.0684,
      "lng": 72.8758,
      "type": "capital",
      "rank": 1,
      "country": "India"
    },
    {
      "name": "New Delhi",
      "lat": 28.6,
      "lng": 77.2,
      "type": "capital",
      "rank": 1,
      "country": "India",
      "national": true
    },
    {
      "name": "Osaka",
      "lat": 34.6911,
      "lng": 135.5038,
      "type": "capital",
      "rank": 1,
      "country": "Japan"
    },
    {
      "name": "Ottawa",
      "lat": 45.4186,
      "lng": -75.702,
      "type": "capital",
      "rank": 1,
      "country": "Canada",
      "national": true
    },
    {
      "name": "Rio de Janeiro",
      "lat": -22.9073,
      "lng": -43.2121,
      "type": "capital",
      "rank": 1,
      "country": "Brazil"
    },
    {
      "name": "Shanghai",
      "lat": 31.2184,
      "lng": 121.4346,
      "type": "capital",
      "rank": 1,
      "country": "Macau"
    },
    {
      "name": "São Paulo",
      "lat": -23.5567,
      "lng": -46.627,
      "type": "capital",
      "rank": 1,
      "country": "Brazil"
    },
    {
      "name": "Addis Ababa",
      "lat": 9.0353,
      "lng": 38.6981,
      "type": "capital",
      "rank": 2,
      "country": "Ethiopia",
      "national": true
    },
    {
      "name": "Algiers",
      "lat": 36.765,
      "lng": 3.0486,
      "type": "capital",
      "rank": 2,
      "country": "Algeria",
      "national": true
    },
    {
      "name": "Amaravati",
      "lat": 16.5337,
      "lng": 80.5243,
      "type": "capital",
      "rank": 2,
      "country": "India"
    },
    {
      "name": "Bamako",
      "lat": 12.652,
      "lng": -8.002,
      "type": "capital",
      "rank": 2,
      "country": "Mali",
      "national": true
    },
    {
      "name": "Belo Horizonte",
      "lat": -19.9131,
      "lng": -43.917,
      "type": "capital",
      "rank": 2,
      "country": "Brazil"
    },
    {
      "name": "Bengaluru",
      "lat": 12.9719,
      "lng": 77.5581,
      "type": "capital",
      "rank": 2,
      "country": "India"
    },
    {
      "name": "Bloemfontein",
      "lat": -29.12,
      "lng": 26.2299,
      "type": "capital",
      "rank": 2,
      "country": "South Africa",
      "national": true
    },
    {
      "name": "Bogotá",
      "lat": 4.5984,
      "lng": -74.0853,
      "type": "capital",
      "rank": 2,
      "country": "Colombia",
      "national": true
    },
    {
      "name": "Buenos Aires",
      "lat": -34.6107,
      "lng": -58.4325,
      "type": "capital",
      "rank": 2,
      "country": "Argentina",
      "national": true
    },
    {
      "name": "Cairo",
      "lat": 30.0519,
      "lng": 31.248,
      "type": "capital",
      "rank": 2,
      "country": "Egypt",
      "national": true
    },
    {
      "name": "Cape Town",
      "lat": -33.9181,
      "lng": 18.433,
      "type": "capital",
      "rank": 2,
      "country": "South Africa",
      "national": true
    },
    {
      "name": "Chennai",
      "lat": 13.0919,
      "lng": 80.2781,
      "type": "capital",
      "rank": 2,
      "country": "India"
    },
    {
      "name": "Chongqing",
      "lat": 29.5669,
      "lng": 106.593,
      "type": "capital",
      "rank": 2,
      "country": "Macau"
    },
    {
      "name": "Guangzhou",
      "lat": 23.1247,
      "lng": 113.2618,
      "type": "capital",
      "rank": 2,
      "country": "Macau"
    },
    {
      "name": "Ho Chi Minh City",
      "lat": 10.7621,
      "lng": 106.703,
      "type": "capital",
      "rank": 2,
      "country": "Vietnam"
    },
    {
      "name": "Hyderabad",
      "lat": 17.4019,
      "lng": 78.478,
      "type": "capital",
      "rank": 2,
      "country": "India"
    },
    {
      "name": "Jakarta",
      "lat": -6.1725,
      "lng": 106.8275,
      "type": "capital",
      "rank": 2,
      "country": "Indonesia",
      "national": true
    },
    {
      "name": "Khartoum",
      "lat": 15.59,
      "lng": 32.5322,
      "type": "capital",
      "rank": 2,
      "country": "Sudan",
      "national": true
    },
    {
      "name": "Kinshasa",
      "lat": -4.3278,
      "lng": 15.313,
      "type": "capital",
      "rank": 2,
      "country": "Congo (Kinshasa)",
      "national": true
    },
    {
      "name": "La Paz",
      "lat": -16.496,
      "lng": -68.1519,
      "type": "capital",
      "rank": 2,
      "country": "Bolivia",
      "national": true
    },
    {
      "name": "Lagos",
      "lat": 6.4452,
      "lng": 3.3896,
      "type": "capital",
      "rank": 2,
      "country": "Nigeria"
    },
    {
      "name": "Lahore",
      "lat": 31.5619,
      "lng": 74.3481,
      "type": "capital",
      "rank": 2,
      "country": "Pakistan"
    },
    {
      "name": "Lima",
      "lat": -12.0461,
      "lng": -77.052,
      "type": "capital",
      "rank": 2,
      "country": "Peru",
      "national": true
    },
    {
      "name": "Luanda",
      "lat": -8.8363,
      "lng": 13.2325,
      "type": "capital",
      "rank": 2,
      "country": "Angola",
      "national": true
    },
    {
      "name": "Madrid",
      "lat": 40.402,
      "lng": -3.6853,
      "type": "capital",
      "rank": 2,
      "country": "Spain",
      "national": true
    },
    {
      "name": "Mexico City",
      "lat": 19.4444,
      "lng": -99.1329,
      "type": "capital",
      "rank": 2,
      "country": "Mexico",
      "national": true
    },
    {
      "name": "N'Djamena",
      "lat": 12.115,
      "lng": 15.0472,
      "type": "capital",
      "rank": 2,
      "country": "Chad",
      "national": true
    },
    {
      "name": "Niamey",
      "lat": 13.5187,
      "lng": 2.1147,
      "type": "capital",
      "rank": 2,
      "country": "Niger",
      "national": true
    },
    {
      "name": "Nouakchott",
      "lat": 18.0864,
      "lng": -15.9753,
      "type": "capital",
      "rank": 2,
      "country": "Mauritania",
      "national": true
    },
    {
      "name": "Paris",
      "lat": 48.8581,
      "lng": 2.353,
      "type": "capital",
      "rank": 3,
      "country": "France",
      "national": true
    },
    {
      "name": "Pretoria",
      "lat": -25.705,
      "lng": 28.2275,
      "type": "capital",
      "rank": 2,
      "country": "South Africa",
      "national": true
    },
    {
      "name": "Riyadh",
      "lat": 24.6345,
      "lng": 46.7205,
      "type": "capital",
      "rank": 2,
      "country": "Saudi Arabia",
      "national": true
    },
    {
      "name": "Seoul",
      "lat": 37.5683,
      "lng": 126.9978,
      "type": "capital",
      "rank": 2,
      "country": "Korea, South",
      "national": true
    },
    {
      "name": "Sucre",
      "lat": -19.041,
      "lng": -65.2595,
      "type": "capital",
      "rank": 2,
      "country": "Bolivia",
      "national": true
    },
    {
      "name": "Tehran",
      "lat": 35.6739,
      "lng": 51.4224,
      "type": "capital",
      "rank": 2,
      "country": "Iran",
      "national": true
    },
    {
      "name": "Tianjin",
      "lat": 39.0828,
      "lng": 117.1966,
      "type": "capital",
      "rank": 2,
      "country": "Macau"
    },
    {
      "name": "Toronto",
      "lat": 43.6646,
      "lng": -79.3895,
      "type": "capital",
      "rank": 2,
      "country": "Canada"
    },
    {
      "name": "Tripoli",
      "lat": 32.8925,
      "lng": 13.18,
      "type": "capital",
      "rank": 2,
      "country": "Libya",
      "national": true
    },
    {
      "name": "Ulaanbaatar",
      "lat": 47.9186,
      "lng": 106.9147,
      "type": "capital",
      "rank": 2,
      "country": "Mongolia",
      "national": true
    },
    {
      "name": "Wuhan",
      "lat": 30.582,
      "lng": 114.2681,
      "type": "capital",
      "rank": 2,
      "country": "Macau"
    },
    {
      "name": "Abidjan",
      "lat": 5.3231,
      "lng": -4.0202,
      "type": "capital",
      "rank": 3,
      "country": "Ivory Coast",
      "national": true
    },
    {
      "name": "Abuja",
      "lat": 9.0546,
      "lng": 7.4895,
      "type": "capital",
      "rank": 3,
      "country": "Nigeria",
      "national": true
    },
    {
      "name": "Adana",
      "lat": 36.9969,
      "lng": 35.3181,
      "type": "capital",
      "rank": 3,
      "country": "Turkey"
    },
    {
      "name": "Adelaide",
      "lat": -34.933,
      "lng": 138.5981,
      "type": "capital",
      "rank": 3,
      "country": "Ashmore and Cartier Islands"
    },
    {
      "name": "Aden",
      "lat": 12.7797,
      "lng": 45.0095,
      "type": "capital",
      "rank": 3,
      "country": "Yemen"
    },
    {
      "name": "Almaty",
      "lat": 43.3269,
      "lng": 76.9131,
      "type": "capital",
      "rank": 3,
      "country": "Baikonur"
    },
    {
      "name": "Amsterdam",
      "lat": 52.3519,
      "lng": 4.9147,
      "type": "capital",
      "rank": 3,
      "country": "Netherlands",
      "national": true
    },
    {
      "name": "Ankara",
      "lat": 39.9292,
      "lng": 32.8624,
      "type": "capital",
      "rank": 3,
      "country": "Turkey",
      "national": true
    },
    {
      "name": "Antananarivo",
      "lat": -18.9147,
      "lng": 47.5147,
      "type": "capital",
      "rank": 3,
      "country": "Madagascar",
      "national": true
    },
    {
      "name": "Ashgabat",
      "lat": 37.95,
      "lng": 58.3833,
      "type": "capital",
      "rank": 3,
      "country": "Turkmenistan",
      "national": true
    },
    {
      "name": "Asunción",
      "lat": -25.2907,
      "lng": -57.6258,
      "type": "capital",
      "rank": 3,
      "country": "Paraguay",
      "national": true
    },
    {
      "name": "Atlanta",
      "lat": 33.7395,
      "lng": -84.3676,
      "type": "capital",
      "rank": 3,
      "country": "Northern Mariana Islands"
    },
    {
      "name": "Auckland",
      "lat": -36.8481,
      "lng": 174.763,
      "type": "capital",
      "rank": 3,
      "country": "Niue"
    },
    {
      "name": "Austin",
      "lat": 30.2689,
      "lng": -97.7447,
      "type": "capital",
      "rank": 3,
      "country": "Northern Mariana Islands"
    },
    {
      "name": "Baghdad",
      "lat": 33.3406,
      "lng": 44.3919,
      "type": "capital",
      "rank": 3,
      "country": "Iraq",
      "national": true
    },
    {
      "name": "Bandung",
      "lat": -6.9481,
      "lng": 107.5681,
      "type": "capital",
      "rank": 3,
      "country": "Indonesia"
    },
    {
      "name": "Bangkok",
      "lat": 13.7519,
      "lng": 100.5147,
      "type": "capital",
      "rank": 3,
      "country": "Thailand",
      "national": true
    },
    {
      "name": "Bangui",
      "lat": 4.3666,
      "lng": 18.5583,
      "type": "capital",
      "rank": 3,
      "country": "Central African Republic",
      "national": true
    },
    {
      "name": "Barcelona",
      "lat": 41.3852,
      "lng": 2.1814,
      "type": "capital",
      "rank": 3,
      "country": "Spain"
    },
    {
      "name": "Barquisimeto",
      "lat": 10.0519,
      "lng": -69.3019,
      "type": "capital",
      "rank": 3,
      "country": "Venezuela"
    },
    {
      "name": "Barranquilla",
      "lat": 10.9619,
      "lng": -74.8019,
      "type": "capital",
      "rank": 3,
      "country": "Colombia"
    },
    {
      "name": "Belém",
      "lat": -1.4481,
      "lng": -48.482,
      "type": "capital",
      "rank": 3,
      "country": "Brazil"
    },
    {
      "name": "Benghazi",
      "lat": 32.1187,
      "lng": 20.0648,
      "type": "capital",
      "rank": 3,
      "country": "Libya"
    },
    {
      "name": "Benin City",
      "lat": 6.3424,
      "lng": 5.6181,
      "type": "capital",
      "rank": 3,
      "country": "Nigeria"
    },
    {
      "name": "Berlin",
      "lat": 52.5238,
      "lng": 13.3996,
      "type": "capital",
      "rank": 3,
      "country": "Germany",
      "national": true
    },
    {
      "name": "Bhopal",
      "lat": 23.2519,
      "lng": 77.408,
      "type": "capital",
      "rank": 3,
      "country": "India"
    },
    {
      "name": "Boston",
      "lat": 42.3319,
      "lng": -71.072,
      "type": "capital",
      "rank": 3,
      "country": "Northern Mariana Islands"
    },
    {
      "name": "Brazzaville",
      "lat": -4.2572,
      "lng": 15.2827,
      "type": "capital",
      "rank": 3,
      "country": "Congo (Brazzaville)",
      "national": true
    },
    {
      "name": "Brisbane",
      "lat": -27.4531,
      "lng": 153.0331,
      "type": "capital",
      "rank": 3,
      "country": "Ashmore and Cartier Islands"
    },
    {
      "name": "Bucaramanga",
      "lat": 7.132,
      "lng": -73.1278,
      "type": "capital",
      "rank": 3,
      "country": "Colombia"
    },
    {
      "name": "Bursa",
      "lat": 40.2019,
      "lng": 29.0681,
      "type": "capital",
      "rank": 3,
      "country": "Turkey"
    },
    {
      "name": "Busan",
      "lat": 35.097,
      "lng": 129.0081,
      "type": "capital",
      "rank": 3,
      "country": "South Korea"
    },
    {
      "name": "Cali",
      "lat": 3.4019,
      "lng": -76.5019,
      "type": "capital",
      "rank": 3,
      "country": "Colombia"
    },
    {
      "name": "Caracas",
      "lat": 10.5029,
      "lng": -66.919,
      "type": "capital",
      "rank": 3,
      "country": "Venezuela",
      "national": true
    },
    {
      "name": "Casablanca",
      "lat": 33.6019,
      "lng": -7.6183,
      "type": "capital",
      "rank": 3,
      "country": "Morocco"
    },
    {
      "name": "Changchun",
      "lat": 43.867,
      "lng": 125.338,
      "type": "capital",
      "rank": 3,
      "country": "Macau"
    },
    {
      "name": "Changsha",
      "lat": 28.2019,
      "lng": 112.968,
      "type": "capital",
      "rank": 3,
      "country": "Macau"
    },
    {
      "name": "Chattogram",
      "lat": 22.3319,
      "lng": 91.798,
      "type": "capital",
      "rank": 3,
      "country": "Bangladesh"
    },
    {
      "name": "Chelyabinsk",
      "lat": 55.1569,
      "lng": 61.4367,
      "type": "capital",
      "rank": 3,
      "country": "Russia"
    },
    {
      "name": "Chengdu",
      "lat": 30.6719,
      "lng": 104.0681,
      "type": "capital",
      "rank": 3,
      "country": "Macau"
    },
    {
      "name": "Cochabamba",
      "lat": -17.41,
      "lng": -66.17,
      "type": "capital",
      "rank": 3,
      "country": "Bolivia"
    },
    {
      "name": "Columbus",
      "lat": 39.9819,
      "lng": -82.992,
      "type": "capital",
      "rank": 3,
      "country": "Northern Mariana Islands"
    },
    {
      "name": "Curitiba",
      "lat": -25.4181,
      "lng": -49.3219,
      "type": "capital",
      "rank": 3,
      "country": "Brazil"
    },
    {
      "name": "Córdoba",
      "lat": -31.398,
      "lng": -64.1842,
      "type": "capital",
      "rank": 3,
      "country": "Argentina"
    },
    {
      "name": "Cần Thơ",
      "lat": 10.05,
      "lng": 105.77,
      "type": "capital",
      "rank": 3,
      "country": "Vietnam"
    },
    {
      "name": "Da Nang",
      "lat": 16.06,
      "lng": 108.25,
      "type": "capital",
      "rank": 3,
      "country": "Vietnam"
    },
    {
      "name": "Daegu",
      "lat": 35.8687,
      "lng": 128.605,
      "type": "capital",
      "rank": 3,
      "country": "South Korea"
    },
    {
      "name": "Daejeon",
      "lat": 36.3375,
      "lng": 127.4231,
      "type": "capital",
      "rank": 3,
      "country": "South Korea"
    },
    {
      "name": "Dammam",
      "lat": 26.4301,
      "lng": 50.0977,
      "type": "capital",
      "rank": 3,
      "country": "Saudi Arabia"
    },
    {
      "name": "Dar es Salaam",
      "lat": -6.7981,
      "lng": 39.2664,
      "type": "capital",
      "rank": 3,
      "country": "Tanzania",
      "national": true
    },
    {
      "name": "Denver",
      "lat": 39.7411,
      "lng": -104.986,
      "type": "capital",
      "rank": 3,
      "country": "Northern Mariana Islands"
    },
    {
      "name": "Dnipro",
      "lat": 48.4819,
      "lng": 34.9981,
      "type": "capital",
      "rank": 3,
      "country": "Ukraine"
    },
    {
      "name": "Douala",
      "lat": 4.0624,
      "lng": 9.708,
      "type": "capital",
      "rank": 3,
      "country": "Cameroon"
    },
    {
      "name": "Dubai",
      "lat": 25.2149,
      "lng": 55.2869,
      "type": "capital",
      "rank": 3,
      "country": "United Arab Emirates"
    },
    {
      "name": "Düsseldorf",
      "lat": 51.2204,
      "lng": 6.78,
      "type": "capital",
      "rank": 3,
      "country": "Germany"
    },
    {
      "name": "Edmonton",
      "lat": 53.552,
      "lng": -113.5019,
      "type": "capital",
      "rank": 3,
      "country": "Canada"
    },
    {
      "name": "Fez",
      "lat": 34.0565,
      "lng": -5.0023,
      "type": "capital",
      "rank": 3,
      "country": "Morocco"
    },
    {
      "name": "Florence",
      "lat": 43.78,
      "lng": 11.25,
      "type": "capital",
      "rank": 3,
      "country": "Italy"
    },
    {
      "name": "Florianópolis",
      "lat": -27.578,
      "lng": -48.522,
      "type": "capital",
      "rank": 3,
      "country": "Brazil"
    },
    {
      "name": "Fortaleza",
      "lat": -3.7481,
      "lng": -38.5819,
      "type": "capital",
      "rank": 3,
      "country": "Brazil"
    },
    {
      "name": "Fukuoka",
      "lat": 33.597,
      "lng": 130.4081,
      "type": "capital",
      "rank": 3,
      "country": "Japan"
    },
    {
      "name": "Fushun",
      "lat": 41.8673,
      "lng": 123.8681,
      "type": "capital",
      "rank": 3,
      "country": "Macau"
    },
    {
      "name": "Fuzhou",
      "lat": 26.0819,
      "lng": 119.2981,
      "type": "capital",
      "rank": 3,
      "country": "Macau"
    },
    {
      "name": "Gaborone",
      "lat": -24.6463,
      "lng": 25.9119,
      "type": "capital",
      "rank": 3,
      "country": "Botswana",
      "national": true
    },
    {
      "name": "Gaziantep",
      "lat": 37.0769,
      "lng": 37.383,
      "type": "capital",
      "rank": 3,
      "country": "Turkey"
    },
    {
      "name": "Geneva",
      "lat": 46.21,
      "lng": 6.14,
      "type": "capital",
      "rank": 3,
      "country": "Switzerland"
    },
    {
      "name": "George Town",
      "lat": 5.4136,
      "lng": 100.3294,
      "type": "capital",
      "rank": 3,
      "country": "Malaysia"
    },
    {
      "name": "Goiânia",
      "lat": -16.7181,
      "lng": -49.302,
      "type": "capital",
      "rank": 3,
      "country": "Brazil"
    },
    {
      "name": "Guadalajara",
      "lat": 20.672,
      "lng": -103.332,
      "type": "capital",
      "rank": 3,
      "country": "Mexico"
    },
    {
      "name": "Guayaquil",
      "lat": -2.2181,
      "lng": -79.922,
      "type": "capital",
      "rank": 3,
      "country": "Ecuador"
    },
    {
      "name": "Guiyang",
      "lat": 26.582,
      "lng": 106.7181,
      "type": "capital",
      "rank": 3,
      "country": "Macau"
    },
    {
      "name": "Gwangju",
      "lat": 35.1729,
      "lng": 126.9085,
      "type": "capital",
      "rank": 3,
      "country": "South Korea"
    },
    {
      "name": "Haifa",
      "lat": 32.8224,
      "lng": 34.9781,
      "type": "capital",
      "rank": 3,
      "country": "Palestine"
    },
    {
      "name": "Haikou",
      "lat": 20.05,
      "lng": 110.32,
      "type": "capital",
      "rank": 3,
      "country": "Macau"
    },
    {
      "name": "Haiphong",
      "lat": 20.832,
      "lng": 106.6781,
      "type": "capital",
      "rank": 3,
      "country": "Vietnam"
    },
    {
      "name": "Hamburg",
      "lat": 53.552,
      "lng": 9.9981,
      "type": "capital",
      "rank": 3,
      "country": "Germany"
    },
    {
      "name": "Hangzhou",
      "lat": 30.2519,
      "lng": 120.1681,
      "type": "capital",
      "rank": 3,
      "country": "Macau"
    },
    {
      "name": "Hanoi",
      "lat": 21.0353,
      "lng": 105.8481,
      "type": "capital",
      "rank": 3,
      "country": "Vietnam",
      "national": true
    },
    {
      "name": "Harare",
      "lat": -17.8158,
      "lng": 31.0428,
      "type": "capital",
      "rank": 3,
      "country": "Zimbabwe",
      "national": true
    },
    {
      "name": "Harbin",
      "lat": 45.7519,
      "lng": 126.648,
      "type": "capital",
      "rank": 3,
      "country": "Macau"
    },
    {
      "name": "Hefei",
      "lat": 31.852,
      "lng": 117.2781,
      "type": "capital",
      "rank": 3,
      "country": "Macau"
    },
    {
      "name": "Hiroshima",
      "lat": 34.3898,
      "lng": 132.441,
      "type": "capital",
      "rank": 3,
      "country": "Japan"
    },
    {
      "name": "Hohhot",
      "lat": 40.8219,
      "lng": 111.658,
      "type": "capital",
      "rank": 3,
      "country": "Macau"
    },
    {
      "name": "Huambo",
      "lat": -12.748,
      "lng": 15.7581,
      "type": "capital",
      "rank": 3,
      "country": "Angola"
    },
    {
      "name": "Ibadan",
      "lat": 7.382,
      "lng": 3.928,
      "type": "capital",
      "rank": 3,
      "country": "Nigeria"
    },
    {
      "name": "Incheon",
      "lat": 37.4781,
      "lng": 126.6403,
      "type": "capital",
      "rank": 3,
      "country": "South Korea"
    },
    {
      "name": "Indianapolis",
      "lat": 39.7519,
      "lng": -86.172,
      "type": "capital",
      "rank": 3,
      "country": "Northern Mariana Islands"
    },
    {
      "name": "Isfahan",
      "lat": 32.702,
      "lng": 51.6981,
      "type": "capital",
      "rank": 3,
      "country": "Iran"
    },
    {
      "name": "Islamabad",
      "lat": 33.6894,
      "lng": 73.0806,
      "type": "capital",
      "rank": 3,
      "country": "Pakistan",
      "national": true
    },
    {
      "name": "Jaipur",
      "lat": 26.9231,
      "lng": 75.808,
      "type": "capital",
      "rank": 3,
      "country": "India"
    },
    {
      "name": "Jinan",
      "lat": 36.6769,
      "lng": 116.9931,
      "type": "capital",
      "rank": 3,
      "country": "Macau"
    },
    {
      "name": "Johannesburg",
      "lat": -26.1681,
      "lng": 28.0281,
      "type": "capital",
      "rank": 3,
      "country": "South Africa"
    },
    {
      "name": "Kabul",
      "lat": 34.5186,
      "lng": 69.1813,
      "type": "capital",
      "rank": 3,
      "country": "Afghanistan",
      "national": true
    },
    {
      "name": "Kaduna",
      "lat": 10.522,
      "lng": 7.4381,
      "type": "capital",
      "rank": 3,
      "country": "Nigeria"
    },
    {
      "name": "Kano",
      "lat": 12.0019,
      "lng": 8.5181,
      "type": "capital",
      "rank": 3,
      "country": "Nigeria"
    },
    {
      "name": "Kaohsiung",
      "lat": 22.6333,
      "lng": 120.2666,
      "type": "capital",
      "rank": 3,
      "country": "Taiwan"
    },
    {
      "name": "Katowice",
      "lat": 50.2604,
      "lng": 19.02,
      "type": "capital",
      "rank": 3,
      "country": "Poland"
    },
    {
      "name": "Kazan",
      "lat": 55.7519,
      "lng": 49.1244,
      "type": "capital",
      "rank": 3,
      "country": "Russia"
    },
    {
      "name": "Kharkiv",
      "lat": 50.0019,
      "lng": 36.2481,
      "type": "capital",
      "rank": 3,
      "country": "Ukraine"
    },
    {
      "name": "Khulna",
      "lat": 22.8419,
      "lng": 89.5581,
      "type": "capital",
      "rank": 3,
      "country": "Bangladesh"
    },
    {
      "name": "Kuala Lumpur",
      "lat": 3.1398,
      "lng": 101.6887,
      "type": "capital",
      "rank": 3,
      "country": "Malaysia",
      "national": true
    },
    {
      "name": "Kumasi",
      "lat": 6.6919,
      "lng": -1.632,
      "type": "capital",
      "rank": 3,
      "country": "Ghana"
    },
    {
      "name": "Kunming",
      "lat": 25.0429,
      "lng": 102.6974,
      "type": "capital",
      "rank": 3,
      "country": "Macau"
    },
    {
      "name": "Kyiv",
      "lat": 50.4353,
      "lng": 30.5147,
      "type": "capital",
      "rank": 3,
      "country": "Ukraine",
      "national": true
    },
    {
      "name": "Kyoto",
      "lat": 35.0319,
      "lng": 135.7481,
      "type": "capital",
      "rank": 3,
      "country": "Japan"
    },
    {
      "name": "Kōbe",
      "lat": 34.68,
      "lng": 135.17,
      "type": "capital",
      "rank": 3,
      "country": "Japan"
    },
    {
      "name": "Lanzhou",
      "lat": 36.058,
      "lng": 103.7901,
      "type": "capital",
      "rank": 3,
      "country": "Macau"
    },
    {
      "name": "Lille",
      "lat": 50.6519,
      "lng": 3.0781,
      "type": "capital",
      "rank": 3,
      "country": "Clipperton Island"
    },
    {
      "name": "Lubumbashi",
      "lat": -11.6781,
      "lng": 27.4781,
      "type": "capital",
      "rank": 3,
      "country": "Congo (Kinshasa)"
    },
    {
      "name": "Lucknow",
      "lat": 26.857,
      "lng": 80.9131,
      "type": "capital",
      "rank": 3,
      "country": "India"
    },
    {
      "name": "Lusaka",
      "lat": -15.4147,
      "lng": 28.2814,
      "type": "capital",
      "rank": 3,
      "country": "Zambia",
      "national": true
    },
    {
      "name": "Lyon",
      "lat": 45.772,
      "lng": 4.8281,
      "type": "capital",
      "rank": 3,
      "country": "Clipperton Island"
    },
    {
      "name": "Maceió",
      "lat": -9.618,
      "lng": -35.7319,
      "type": "capital",
      "rank": 3,
      "country": "Brazil"
    },
    {
      "name": "Makassar",
      "lat": -5.138,
      "lng": 119.4301,
      "type": "capital",
      "rank": 3,
      "country": "Indonesia"
    },
    {
      "name": "Manaus",
      "lat": -3.0981,
      "lng": -60.002,
      "type": "capital",
      "rank": 3,
      "country": "Brazil"
    },
    {
      "name": "Mandalay",
      "lat": 21.9719,
      "lng": 96.0831,
      "type": "capital",
      "rank": 3,
      "country": "Myanmar"
    },
    {
      "name": "Maputo",
      "lat": -25.9533,
      "lng": 32.5872,
      "type": "capital",
      "rank": 3,
      "country": "Mozambique",
      "national": true
    },
    {
      "name": "Maracaibo",
      "lat": 10.7319,
      "lng": -71.6619,
      "type": "capital",
      "rank": 3,
      "country": "Venezuela"
    },
    {
      "name": "Marseille",
      "lat": 43.2919,
      "lng": 5.3731,
      "type": "capital",
      "rank": 3,
      "country": "Clipperton Island"
    },
    {
      "name": "Mashhad",
      "lat": 36.272,
      "lng": 59.5681,
      "type": "capital",
      "rank": 3,
      "country": "Iran"
    },
    {
      "name": "Mbuji-Mayi",
      "lat": -6.1481,
      "lng": 23.5981,
      "type": "capital",
      "rank": 3,
      "country": "Congo (Kinshasa)"
    },
    {
      "name": "Medan",
      "lat": 3.5819,
      "lng": 98.6481,
      "type": "capital",
      "rank": 3,
      "country": "Indonesia"
    },
    {
      "name": "Medellin",
      "lat": 6.2769,
      "lng": -75.577,
      "type": "capital",
      "rank": 3,
      "country": "Colombia"
    },
    {
      "name": "Medina",
      "lat": 24.5019,
      "lng": 39.5781,
      "type": "capital",
      "rank": 3,
      "country": "Saudi Arabia"
    },
    {
      "name": "Melbourne",
      "lat": -37.8181,
      "lng": 144.9731,
      "type": "capital",
      "rank": 3,
      "country": "Ashmore and Cartier Islands"
    },
    {
      "name": "Milan",
      "lat": 45.4719,
      "lng": 9.2031,
      "type": "capital",
      "rank": 3,
      "country": "Italy"
    },
    {
      "name": "Mogadishu",
      "lat": 2.0686,
      "lng": 45.3647,
      "type": "capital",
      "rank": 3,
      "country": "Somalia",
      "national": true
    },
    {
      "name": "Monterrey",
      "lat": 25.6719,
      "lng": -100.3319,
      "type": "capital",
      "rank": 3,
      "country": "Mexico"
    },
    {
      "name": "Mosul",
      "lat": 36.3469,
      "lng": 43.1431,
      "type": "capital",
      "rank": 3,
      "country": "Iraq"
    },
    {
      "name": "Munich",
      "lat": 48.1319,
      "lng": 11.573,
      "type": "capital",
      "rank": 3,
      "country": "Germany"
    },
    {
      "name": "Muscat",
      "lat": 23.5852,
      "lng": 58.3783,
      "type": "capital",
      "rank": 3,
      "country": "Oman",
      "national": true
    },
    {
      "name": "Nagoya",
      "lat": 35.1569,
      "lng": 136.913,
      "type": "capital",
      "rank": 3,
      "country": "Japan"
    },
    {
      "name": "Nairobi",
      "lat": -1.2814,
      "lng": 36.8147,
      "type": "capital",
      "rank": 3,
      "country": "Kenya",
      "national": true
    },
    {
      "name": "Nampho",
      "lat": 38.7689,
      "lng": 125.4505,
      "type": "capital",
      "rank": 3,
      "country": "North Korea"
    },
    {
      "name": "Nanchang",
      "lat": 28.6819,
      "lng": 115.8781,
      "type": "capital",
      "rank": 3,
      "country": "Macau"
    },
    {
      "name": "Nanjing",
      "lat": 32.052,
      "lng": 118.778,
      "type": "capital",
      "rank": 3,
      "country": "Macau"
    },
    {
      "name": "Nanning",
      "lat": 22.8219,
      "lng": 108.3181,
      "type": "capital",
      "rank": 3,
      "country": "Macau"
    },
    {
      "name": "Naples",
      "lat": 40.842,
      "lng": 14.2431,
      "type": "capital",
      "rank": 3,
      "country": "Italy"
    },
    {
      "name": "Natal",
      "lat": -5.7781,
      "lng": -35.242,
      "type": "capital",
      "rank": 3,
      "country": "Brazil"
    },
    {
      "name": "Naypyidaw",
      "lat": 19.7685,
      "lng": 96.1167,
      "type": "capital",
      "rank": 3,
      "country": "Myanmar",
      "national": true
    },
    {
      "name": "New Taipei",
      "lat": 25.0128,
      "lng": 121.465,
      "type": "capital",
      "rank": 3,
      "country": "Taiwan"
    },
    {
      "name": "Niterói",
      "lat": -22.8825,
      "lng": -43.1058,
      "type": "capital",
      "rank": 3,
      "country": "Brazil"
    },
    {
      "name": "Nizhny Novgorod",
      "lat": 56.335,
      "lng": 43.9981,
      "type": "capital",
      "rank": 3,
      "country": "Russia"
    },
    {
      "name": "Novosibirsk",
      "lat": 55.0319,
      "lng": 82.9581,
      "type": "capital",
      "rank": 3,
      "country": "Russia"
    },
    {
      "name": "Omdurman",
      "lat": 15.6167,
      "lng": 32.48,
      "type": "capital",
      "rank": 3,
      "country": "Sudan"
    },
    {
      "name": "Omsk",
      "lat": 54.9919,
      "lng": 73.398,
      "type": "capital",
      "rank": 3,
      "country": "Russia"
    },
    {
      "name": "Palembang",
      "lat": -2.9781,
      "lng": 104.7481,
      "type": "capital",
      "rank": 3,
      "country": "Indonesia"
    },
    {
      "name": "Patna",
      "lat": 25.6269,
      "lng": 85.1281,
      "type": "capital",
      "rank": 3,
      "country": "India"
    },
    {
      "name": "Perth",
      "lat": -31.9531,
      "lng": 115.8381,
      "type": "capital",
      "rank": 3,
      "country": "Ashmore and Cartier Islands"
    },
    {
      "name": "Peshawar",
      "lat": 34.007,
      "lng": 71.5331,
      "type": "capital",
      "rank": 3,
      "country": "Pakistan"
    },
    {
      "name": "Phoenix",
      "lat": 33.4483,
      "lng": -112.0674,
      "type": "capital",
      "rank": 3,
      "country": "Northern Mariana Islands"
    },
    {
      "name": "Port Harcourt",
      "lat": 4.8119,
      "lng": 7.0081,
      "type": "capital",
      "rank": 3,
      "country": "Nigeria"
    },
    {
      "name": "Port Moresby",
      "lat": -9.4647,
      "lng": 147.1925,
      "type": "capital",
      "rank": 3,
      "country": "Papua New Guinea",
      "national": true
    },
    {
      "name": "Porto",
      "lat": 41.152,
      "lng": -8.6219,
      "type": "capital",
      "rank": 3,
      "country": "Portugal"
    },
    {
      "name": "Porto Alegre",
      "lat": -30.0481,
      "lng": -51.202,
      "type": "capital",
      "rank": 3,
      "country": "Brazil"
    },
    {
      "name": "Providence",
      "lat": 41.823,
      "lng": -71.4169,
      "type": "capital",
      "rank": 3,
      "country": "Northern Mariana Islands"
    },
    {
      "name": "Puebla City",
      "lat": 19.0326,
      "lng": -98.2037,
      "type": "capital",
      "rank": 3,
      "country": "Mexico"
    },
    {
      "name": "Pyongyang",
      "lat": 39.0214,
      "lng": 125.7527,
      "type": "capital",
      "rank": 3,
      "country": "Korea, North",
      "national": true
    },
    {
      "name": "Rabat",
      "lat": 34.0253,
      "lng": -6.8364,
      "type": "capital",
      "rank": 3,
      "country": "Morocco",
      "national": true
    },
    {
      "name": "Raleigh",
      "lat": 35.7727,
      "lng": -78.647,
      "type": "capital",
      "rank": 3,
      "country": "Northern Mariana Islands"
    },
    {
      "name": "Ranchi",
      "lat": 23.372,
      "lng": 85.3281,
      "type": "capital",
      "rank": 3,
      "country": "India"
    },
    {
      "name": "Recife",
      "lat": -8.0605,
      "lng": -34.9088,
      "type": "capital",
      "rank": 3,
      "country": "Brazil"
    },
    {
      "name": "Rome",
      "lat": 41.8979,
      "lng": 12.4813,
      "type": "capital",
      "rank": 3,
      "country": "Italy",
      "national": true
    },
    {
      "name": "Rostov-on-Don",
      "lat": 47.2366,
      "lng": 39.7107,
      "type": "capital",
      "rank": 3,
      "country": "Russia"
    },
    {
      "name": "Sacramento",
      "lat": 38.577,
      "lng": -121.472,
      "type": "capital",
      "rank": 3,
      "country": "Northern Mariana Islands"
    },
    {
      "name": "Saint Petersburg",
      "lat": 59.941,
      "lng": 30.3141,
      "type": "capital",
      "rank": 3,
      "country": "Russia"
    },
    {
      "name": "Salvador",
      "lat": -12.968,
      "lng": -38.4819,
      "type": "capital",
      "rank": 3,
      "country": "Brazil"
    },
    {
      "name": "Samara",
      "lat": 53.197,
      "lng": 50.1493,
      "type": "capital",
      "rank": 3,
      "country": "Russia"
    },
    {
      "name": "San Juan",
      "lat": 18.44,
      "lng": -66.13,
      "type": "capital",
      "rank": 3,
      "country": "Puerto Rico"
    },
    {
      "name": "Sanaa",
      "lat": 15.3567,
      "lng": 44.2046,
      "type": "capital",
      "rank": 3,
      "country": "Yemen",
      "national": true
    },
    {
      "name": "Santa Cruz de la Sierra",
      "lat": -17.752,
      "lng": -63.2279,
      "type": "capital",
      "rank": 3,
      "country": "Bolivia"
    },
    {
      "name": "Santiago",
      "lat": -33.4402,
      "lng": -70.6505,
      "type": "capital",
      "rank": 3,
      "country": "Chile",
      "national": true
    },
    {
      "name": "Santiago de los Caballeros",
      "lat": 19.5,
      "lng": -70.67,
      "type": "capital",
      "rank": 3,
      "country": "Dominican Republic"
    },
    {
      "name": "Sapporo",
      "lat": 43.0769,
      "lng": 141.3381,
      "type": "capital",
      "rank": 3,
      "country": "Japan"
    },
    {
      "name": "Semarang",
      "lat": -6.9647,
      "lng": 110.4181,
      "type": "capital",
      "rank": 3,
      "country": "Indonesia"
    },
    {
      "name": "Sendai",
      "lat": 38.2684,
      "lng": 140.8697,
      "type": "capital",
      "rank": 3,
      "country": "Japan"
    },
    {
      "name": "Seville",
      "lat": 37.405,
      "lng": -5.98,
      "type": "capital",
      "rank": 3,
      "country": "Spain"
    },
    {
      "name": "Sharjah",
      "lat": 25.3714,
      "lng": 55.4065,
      "type": "capital",
      "rank": 3,
      "country": "United Arab Emirates"
    },
    {
      "name": "Shenyang",
      "lat": 41.8069,
      "lng": 123.448,
      "type": "capital",
      "rank": 3,
      "country": "Macau"
    },
    {
      "name": "Shijiazhuang",
      "lat": 38.052,
      "lng": 114.478,
      "type": "capital",
      "rank": 3,
      "country": "Macau"
    },
    {
      "name": "Shiraz",
      "lat": 29.6319,
      "lng": 52.5681,
      "type": "capital",
      "rank": 3,
      "country": "Iran"
    },
    {
      "name": "Srinagar",
      "lat": 34.0695,
      "lng": 74.8283,
      "type": "capital",
      "rank": 3,
      "country": "India"
    },
    {
      "name": "Stockholm",
      "lat": 59.3241,
      "lng": 18.0663,
      "type": "capital",
      "rank": 3,
      "country": "Sweden",
      "national": true
    },
    {
      "name": "Stuttgart",
      "lat": 48.78,
      "lng": 9.2,
      "type": "capital",
      "rank": 3,
      "country": "Germany"
    },
    {
      "name": "Surabaya",
      "lat": -7.2473,
      "lng": 112.7489,
      "type": "capital",
      "rank": 3,
      "country": "Indonesia"
    },
    {
      "name": "Suwon",
      "lat": 37.2597,
      "lng": 127.0089,
      "type": "capital",
      "rank": 3,
      "country": "South Korea"
    },
    {
      "name": "Sydney",
      "lat": -33.8714,
      "lng": 151.2125,
      "type": "capital",
      "rank": 3,
      "country": "Ashmore and Cartier Islands"
    },
    {
      "name": "São Luís",
      "lat": -2.514,
      "lng": -44.2679,
      "type": "capital",
      "rank": 3,
      "country": "Brazil"
    },
    {
      "name": "Tabriz",
      "lat": 38.0882,
      "lng": 46.2993,
      "type": "capital",
      "rank": 3,
      "country": "Iran"
    },
    {
      "name": "Taichung",
      "lat": 24.1521,
      "lng": 120.6817,
      "type": "capital",
      "rank": 3,
      "country": "Taiwan"
    },
    {
      "name": "Tainan",
      "lat": 23.0,
      "lng": 120.2,
      "type": "capital",
      "rank": 3,
      "country": "Taiwan"
    },
    {
      "name": "Taiyuan",
      "lat": 37.877,
      "lng": 112.5431,
      "type": "capital",
      "rank": 3,
      "country": "Macau"
    },
    {
      "name": "Tashkent",
      "lat": 41.3038,
      "lng": 69.2688,
      "type": "capital",
      "rank": 3,
      "country": "Uzbekistan",
      "national": true
    },
    {
      "name": "Tel Aviv",
      "lat": 32.0819,
      "lng": 34.7681,
      "type": "capital",
      "rank": 3,
      "country": "Palestine"
    },
    {
      "name": "The Hague",
      "lat": 52.08,
      "lng": 4.27,
      "type": "capital",
      "rank": 3,
      "country": "Aruba"
    },
    {
      "name": "Tokyo",
      "lat": 35.687,
      "lng": 139.7495,
      "type": "capital",
      "rank": 3,
      "country": "Japan",
      "national": true
    },
    {
      "name": "Toluca",
      "lat": 19.2893,
      "lng": -99.6532,
      "type": "capital",
      "rank": 3,
      "country": "Mexico"
    },
    {
      "name": "Turin",
      "lat": 45.0723,
      "lng": 7.668,
      "type": "capital",
      "rank": 3,
      "country": "Italy"
    },
    {
      "name": "Ufa",
      "lat": 54.7919,
      "lng": 56.0381,
      "type": "capital",
      "rank": 3,
      "country": "Russia"
    },
    {
      "name": "Ulsan",
      "lat": 35.5487,
      "lng": 129.315,
      "type": "capital",
      "rank": 3,
      "country": "South Korea"
    },
    {
      "name": "Valencia",
      "lat": 10.2319,
      "lng": -67.982,
      "type": "capital",
      "rank": 3,
      "country": "Venezuela"
    },
    {
      "name": "Vitoria",
      "lat": -20.332,
      "lng": -40.3539,
      "type": "capital",
      "rank": 3,
      "country": "Brazil"
    },
    {
      "name": "Warsaw",
      "lat": 52.2309,
      "lng": 21.0053,
      "type": "capital",
      "rank": 3,
      "country": "Poland",
      "national": true
    },
    {
      "name": "Washington",
      "lat": 38.9015,
      "lng": -77.0114,
      "type": "capital",
      "rank": 1,
      "country": "United States of America",
      "national": true
    },
    {
      "name": "Windhoek",
      "lat": -22.57,
      "lng": 17.0835,
      "type": "capital",
      "rank": 3,
      "country": "Namibia",
      "national": true
    },
    {
      "name": "Xi'an",
      "lat": 34.277,
      "lng": 108.8931,
      "type": "capital",
      "rank": 3,
      "country": "Macau"
    },
    {
      "name": "Xining",
      "lat": 36.6219,
      "lng": 101.7681,
      "type": "capital",
      "rank": 3,
      "country": "Macau"
    },
    {
      "name": "Yamoussoukro",
      "lat": 6.8184,
      "lng": -5.2755,
      "type": "capital",
      "rank": 3,
      "country": "Ivory Coast",
      "national": true
    },
    {
      "name": "Yangon",
      "lat": 16.7853,
      "lng": 96.1647,
      "type": "capital",
      "rank": 3,
      "country": "Myanmar"
    },
    {
      "name": "Yaoundé",
      "lat": 3.8686,
      "lng": 11.5147,
      "type": "capital",
      "rank": 3,
      "country": "Cameroon",
      "national": true
    },
    {
      "name": "Yekaterinburg",
      "lat": 56.852,
      "lng": 60.598,
      "type": "capital",
      "rank": 3,
      "country": "Russia"
    },
    {
      "name": "Yokohama",
      "lat": 35.4307,
      "lng": 139.602,
      "type": "capital",
      "rank": 3,
      "country": "Japan"
    },
    {
      "name": "Zhengzhou",
      "lat": 34.7569,
      "lng": 113.6631,
      "type": "capital",
      "rank": 3,
      "country": "Macau"
    },
    {
      "name": "Zürich",
      "lat": 47.3819,
      "lng": 8.5481,
      "type": "capital",
      "rank": 3,
      "country": "Switzerland"
    },
    {
      "name": "Ürümqi",
      "lat": 43.807,
      "lng": 87.5731,
      "type": "capital",
      "rank": 3,
      "country": "Macau"
    },
    {
      "name": "İzmir",
      "lat": 38.4381,
      "lng": 27.1498,
      "type": "capital",
      "rank": 3,
      "country": "Turkey"
    },
    {
      "name": "Abeokuta",
      "lat": 7.1604,
      "lng": 3.35,
      "type": "capital",
      "rank": 4,
      "country": "Nigeria"
    },
    {
      "name": "Abu Dhabi",
      "lat": 24.4667,
      "lng": 54.3666,
      "type": "capital",
      "rank": 4,
      "country": "United Arab Emirates",
      "national": true
    },
    {
      "name": "Accra",
      "lat": 5.552,
      "lng": -0.2187,
      "type": "capital",
      "rank": 4,
      "country": "Ghana",
      "national": true
    },
    {
      "name": "Agadir",
      "lat": 30.44,
      "lng": -9.62,
      "type": "capital",
      "rank": 4,
      "country": "Morocco"
    },
    {
      "name": "Aguascalientes City",
      "lat": 21.8814,
      "lng": -102.2924,
      "type": "capital",
      "rank": 4,
      "country": "Mexico"
    },
    {
      "name": "Ahwaz",
      "lat": 31.2819,
      "lng": 48.7181,
      "type": "capital",
      "rank": 4,
      "country": "Iran"
    },
    {
      "name": "Al Hudaydah",
      "lat": 14.7999,
      "lng": 42.951,
      "type": "capital",
      "rank": 4,
      "country": "Yemen"
    },
    {
      "name": "Albany",
      "lat": 42.6537,
      "lng": -73.7576,
      "type": "capital",
      "rank": 4,
      "country": "Northern Mariana Islands"
    },
    {
      "name": "Amman",
      "lat": 31.952,
      "lng": 35.9314,
      "type": "capital",
      "rank": 4,
      "country": "Jordan",
      "national": true
    },
    {
      "name": "Andijan",
      "lat": 40.79,
      "lng": 72.34,
      "type": "capital",
      "rank": 4,
      "country": "Uzbekistan"
    },
    {
      "name": "Annaba",
      "lat": 36.92,
      "lng": 7.76,
      "type": "capital",
      "rank": 4,
      "country": "Algeria"
    },
    {
      "name": "Antalya",
      "lat": 36.8919,
      "lng": 30.698,
      "type": "capital",
      "rank": 4,
      "country": "Turkey"
    },
    {
      "name": "Antwerp",
      "lat": 51.2223,
      "lng": 4.4131,
      "type": "capital",
      "rank": 4,
      "country": "Belgium"
    },
    {
      "name": "Aracaju",
      "lat": -10.9,
      "lng": -37.12,
      "type": "capital",
      "rank": 4,
      "country": "Brazil"
    },
    {
      "name": "Arak",
      "lat": 34.0804,
      "lng": 49.7,
      "type": "capital",
      "rank": 4,
      "country": "Iran"
    },
    {
      "name": "Arequipa",
      "lat": -16.418,
      "lng": -71.532,
      "type": "capital",
      "rank": 4,
      "country": "Peru"
    },
    {
      "name": "Asmara",
      "lat": 15.3333,
      "lng": 38.9333,
      "type": "capital",
      "rank": 4,
      "country": "Eritrea",
      "national": true
    },
    {
      "name": "Astrakhan",
      "lat": 46.3487,
      "lng": 48.055,
      "type": "capital",
      "rank": 4,
      "country": "Russia"
    },
    {
      "name": "Athens",
      "lat": 37.9853,
      "lng": 23.7314,
      "type": "capital",
      "rank": 4,
      "country": "Greece",
      "national": true
    },
    {
      "name": "Awka",
      "lat": 6.2104,
      "lng": 7.07,
      "type": "capital",
      "rank": 4,
      "country": "Nigeria"
    },
    {
      "name": "Baku",
      "lat": 40.3972,
      "lng": 49.8603,
      "type": "capital",
      "rank": 4,
      "country": "Azerbaijan",
      "national": true
    },
    {
      "name": "Banda Aceh",
      "lat": 5.55,
      "lng": 95.32,
      "type": "capital",
      "rank": 4,
      "country": "Indonesia"
    },
    {
      "name": "Bandar Lampung",
      "lat": -5.4496,
      "lng": 105.3,
      "type": "capital",
      "rank": 4,
      "country": "Indonesia"
    },
    {
      "name": "Banjarmasin",
      "lat": -3.33,
      "lng": 114.5801,
      "type": "capital",
      "rank": 4,
      "country": "Indonesia"
    },
    {
      "name": "Barcelona",
      "lat": 10.1304,
      "lng": -64.72,
      "type": "capital",
      "rank": 4,
      "country": "Venezuela"
    },
    {
      "name": "Bari",
      "lat": 41.1142,
      "lng": 16.8728,
      "type": "capital",
      "rank": 4,
      "country": "Italy"
    },
    {
      "name": "Barnaul",
      "lat": 53.355,
      "lng": 83.745,
      "type": "capital",
      "rank": 4,
      "country": "Russia"
    },
    {
      "name": "Basel",
      "lat": 47.5804,
      "lng": 7.59,
      "type": "capital",
      "rank": 4,
      "country": "Switzerland"
    },
    {
      "name": "Basra",
      "lat": 30.5155,
      "lng": 47.8116,
      "type": "capital",
      "rank": 4,
      "country": "Iraq"
    },
    {
      "name": "Beira",
      "lat": -19.82,
      "lng": 34.87,
      "type": "capital",
      "rank": 4,
      "country": "Mozambique"
    },
    {
      "name": "Belgrade",
      "lat": 44.8206,
      "lng": 20.466,
      "type": "capital",
      "rank": 4,
      "country": "Serbia",
      "national": true
    },
    {
      "name": "Bhubaneswar",
      "lat": 20.2724,
      "lng": 85.8254,
      "type": "capital",
      "rank": 4,
      "country": "India"
    },
    {
      "name": "Bishkek",
      "lat": 42.875,
      "lng": 74.5833,
      "type": "capital",
      "rank": 4,
      "country": "Kyrgyzstan",
      "national": true
    },
    {
      "name": "Biên Hòa",
      "lat": 10.97,
      "lng": 106.8301,
      "type": "capital",
      "rank": 4,
      "country": "Vietnam"
    },
    {
      "name": "Blantyre",
      "lat": -15.79,
      "lng": 34.9899,
      "type": "capital",
      "rank": 4,
      "country": "Malawi"
    },
    {
      "name": "Blida",
      "lat": 36.4203,
      "lng": 2.83,
      "type": "capital",
      "rank": 4,
      "country": "Algeria"
    },
    {
      "name": "Bordeaux",
      "lat": 44.852,
      "lng": -0.597,
      "type": "capital",
      "rank": 4,
      "country": "Clipperton Island"
    },
    {
      "name": "Bouaké",
      "lat": 7.69,
      "lng": -5.03,
      "type": "capital",
      "rank": 4,
      "country": "Ivory Coast"
    },
    {
      "name": "Braga",
      "lat": 41.555,
      "lng": -8.4213,
      "type": "capital",
      "rank": 4,
      "country": "Portugal"
    },
    {
      "name": "Bremen",
      "lat": 53.08,
      "lng": 8.8,
      "type": "capital",
      "rank": 4,
      "country": "Germany"
    },
    {
      "name": "Bucharest",
      "lat": 44.4353,
      "lng": 26.098,
      "type": "capital",
      "rank": 4,
      "country": "Romania",
      "national": true
    },
    {
      "name": "Budapest",
      "lat": 47.502,
      "lng": 19.0814,
      "type": "capital",
      "rank": 4,
      "country": "Hungary",
      "national": true
    },
    {
      "name": "Bulawayo",
      "lat": -20.17,
      "lng": 28.58,
      "type": "capital",
      "rank": 4,
      "country": "Zimbabwe"
    },
    {
      "name": "Callao",
      "lat": -12.07,
      "lng": -77.135,
      "type": "capital",
      "rank": 4,
      "country": "Peru"
    },
    {
      "name": "Campo Grande",
      "lat": -20.4481,
      "lng": -54.6186,
      "type": "capital",
      "rank": 4,
      "country": "Brazil"
    },
    {
      "name": "Cardiff",
      "lat": 51.4826,
      "lng": -3.1676,
      "type": "capital",
      "rank": 4,
      "country": "Falkland Islands"
    },
    {
      "name": "Cartagena",
      "lat": 10.4017,
      "lng": -75.5163,
      "type": "capital",
      "rank": 4,
      "country": "Colombia"
    },
    {
      "name": "Chandigarh",
      "lat": 30.7219,
      "lng": 76.7781,
      "type": "capital",
      "rank": 4,
      "country": "India"
    },
    {
      "name": "Changhua",
      "lat": 24.0734,
      "lng": 120.5134,
      "type": "capital",
      "rank": 4,
      "country": "Taiwan"
    },
    {
      "name": "Cheongju",
      "lat": 36.6439,
      "lng": 127.5012,
      "type": "capital",
      "rank": 4,
      "country": "South Korea"
    },
    {
      "name": "Chiayi City",
      "lat": 23.4755,
      "lng": 120.4351,
      "type": "capital",
      "rank": 4,
      "country": "Taiwan"
    },
    {
      "name": "Chiclayo",
      "lat": -6.7629,
      "lng": -79.8366,
      "type": "capital",
      "rank": 4,
      "country": "Peru"
    },
    {
      "name": "Chihuahua City",
      "lat": 28.6469,
      "lng": -106.0869,
      "type": "capital",
      "rank": 4,
      "country": "Mexico"
    },
    {
      "name": "Chongjin",
      "lat": 41.7846,
      "lng": 129.79,
      "type": "capital",
      "rank": 4,
      "country": "North Korea"
    },
    {
      "name": "Colombo",
      "lat": 6.932,
      "lng": 79.8578,
      "type": "capital",
      "rank": 4,
      "country": "Sri Lanka",
      "national": true
    },
    {
      "name": "Conakry",
      "lat": 9.5335,
      "lng": -13.6822,
      "type": "capital",
      "rank": 4,
      "country": "Guinea",
      "national": true
    },
    {
      "name": "Concepción",
      "lat": -36.83,
      "lng": -73.05,
      "type": "capital",
      "rank": 4,
      "country": "Chile"
    },
    {
      "name": "Constantine",
      "lat": 36.36,
      "lng": 6.5999,
      "type": "capital",
      "rank": 4,
      "country": "Algeria"
    },
    {
      "name": "Cotonou",
      "lat": 6.363,
      "lng": 2.4044,
      "type": "capital",
      "rank": 4,
      "country": "Benin",
      "national": true
    },
    {
      "name": "Cuernavaca",
      "lat": 18.9211,
      "lng": -99.24,
      "type": "capital",
      "rank": 4,
      "country": "Mexico"
    },
    {
      "name": "Cuiabá",
      "lat": -15.5677,
      "lng": -56.0869,
      "type": "capital",
      "rank": 4,
      "country": "Brazil"
    },
    {
      "name": "Culiacán",
      "lat": 24.8319,
      "lng": -107.3819,
      "type": "capital",
      "rank": 4,
      "country": "Mexico"
    },
    {
      "name": "Cúcuta",
      "lat": 7.92,
      "lng": -72.52,
      "type": "capital",
      "rank": 4,
      "country": "Colombia"
    },
    {
      "name": "Dakar",
      "lat": 14.7178,
      "lng": -17.4751,
      "type": "capital",
      "rank": 4,
      "country": "Senegal",
      "national": true
    },
    {
      "name": "Damanhur",
      "lat": 31.0504,
      "lng": 30.47,
      "type": "capital",
      "rank": 4,
      "country": "Egypt"
    },
    {
      "name": "Damascus",
      "lat": 33.502,
      "lng": 36.2981,
      "type": "capital",
      "rank": 4,
      "country": "Syria",
      "national": true
    },
    {
      "name": "Dehradun",
      "lat": 30.3204,
      "lng": 78.05,
      "type": "capital",
      "rank": 4,
      "country": "India"
    },
    {
      "name": "Dhaka",
      "lat": 23.725,
      "lng": 90.4066,
      "type": "capital",
      "rank": 4,
      "country": "Bangladesh",
      "national": true
    },
    {
      "name": "Diyarbakır",
      "lat": 37.9204,
      "lng": 40.23,
      "type": "capital",
      "rank": 4,
      "country": "Turkey"
    },
    {
      "name": "Donetsk",
      "lat": 48.0019,
      "lng": 37.828,
      "type": "capital",
      "rank": 4,
      "country": "Ukraine"
    },
    {
      "name": "Dresden",
      "lat": 51.05,
      "lng": 13.75,
      "type": "capital",
      "rank": 4,
      "country": "Germany"
    },
    {
      "name": "Dublin",
      "lat": 53.3467,
      "lng": -6.257,
      "type": "capital",
      "rank": 4,
      "country": "Ireland",
      "national": true
    },
    {
      "name": "Duhok",
      "lat": 36.8667,
      "lng": 43.0,
      "type": "capital",
      "rank": 4,
      "country": "Iraq"
    },
    {
      "name": "Dushanbe",
      "lat": 38.56,
      "lng": 68.7739,
      "type": "capital",
      "rank": 4,
      "country": "Tajikistan",
      "national": true
    },
    {
      "name": "Edinburgh",
      "lat": 55.9483,
      "lng": -3.2191,
      "type": "capital",
      "rank": 4,
      "country": "Falkland Islands"
    },
    {
      "name": "Enugu",
      "lat": 6.45,
      "lng": 7.5,
      "type": "capital",
      "rank": 4,
      "country": "Nigeria"
    },
    {
      "name": "Erbil",
      "lat": 36.181,
      "lng": 44.0067,
      "type": "capital",
      "rank": 4,
      "country": "Iraq"
    },
    {
      "name": "Eskişehir",
      "lat": 39.795,
      "lng": 30.53,
      "type": "capital",
      "rank": 4,
      "country": "Turkey"
    },
    {
      "name": "Fergana",
      "lat": 40.39,
      "lng": 71.78,
      "type": "capital",
      "rank": 4,
      "country": "Uzbekistan"
    },
    {
      "name": "Freetown",
      "lat": 8.472,
      "lng": -13.2362,
      "type": "capital",
      "rank": 4,
      "country": "Sierra Leone",
      "national": true
    },
    {
      "name": "Gaza City",
      "lat": 31.53,
      "lng": 34.445,
      "type": "capital",
      "rank": 4,
      "country": "Palestine"
    },
    {
      "name": "Gdańsk",
      "lat": 54.36,
      "lng": 18.64,
      "type": "capital",
      "rank": 4,
      "country": "Poland"
    },
    {
      "name": "Genoa",
      "lat": 44.41,
      "lng": 8.93,
      "type": "capital",
      "rank": 4,
      "country": "Italy"
    },
    {
      "name": "Georgetown",
      "lat": 6.802,
      "lng": -58.167,
      "type": "capital",
      "rank": 4,
      "country": "Guyana",
      "national": true
    },
    {
      "name": "Gothenburg",
      "lat": 57.7091,
      "lng": 11.9786,
      "type": "capital",
      "rank": 4,
      "country": "Sweden"
    },
    {
      "name": "Guatemala City",
      "lat": 14.6231,
      "lng": -90.5289,
      "type": "capital",
      "rank": 4,
      "country": "Guatemala",
      "national": true
    },
    {
      "name": "Hamadan",
      "lat": 34.796,
      "lng": 48.515,
      "type": "capital",
      "rank": 4,
      "country": "Iran"
    },
    {
      "name": "Hamhung",
      "lat": 39.912,
      "lng": 127.5435,
      "type": "capital",
      "rank": 4,
      "country": "North Korea"
    },
    {
      "name": "Hanover",
      "lat": 52.367,
      "lng": 9.7167,
      "type": "capital",
      "rank": 4,
      "country": "Germany"
    },
    {
      "name": "Hargeisa",
      "lat": 9.56,
      "lng": 44.0653,
      "type": "capital",
      "rank": 4,
      "country": "Somaliland",
      "national": true
    },
    {
      "name": "Harrisburg",
      "lat": 40.2736,
      "lng": -76.8847,
      "type": "capital",
      "rank": 4,
      "country": "Northern Mariana Islands"
    },
    {
      "name": "Hartford",
      "lat": 41.772,
      "lng": -72.6819,
      "type": "capital",
      "rank": 4,
      "country": "Northern Mariana Islands"
    },
    {
      "name": "Havana",
      "lat": 23.1339,
      "lng": -82.3661,
      "type": "capital",
      "rank": 4,
      "country": "Cuba",
      "national": true
    },
    {
      "name": "Hermosillo",
      "lat": 29.0989,
      "lng": -110.9541,
      "type": "capital",
      "rank": 4,
      "country": "Mexico"
    },
    {
      "name": "Hillah",
      "lat": 32.4721,
      "lng": 44.4217,
      "type": "capital",
      "rank": 4,
      "country": "Iraq"
    },
    {
      "name": "Honolulu",
      "lat": 21.3034,
      "lng": -157.8583,
      "type": "capital",
      "rank": 4,
      "country": "Northern Mariana Islands"
    },
    {
      "name": "Hsinchu",
      "lat": 24.8168,
      "lng": 120.9767,
      "type": "capital",
      "rank": 4,
      "country": "Taiwan"
    },
    {
      "name": "Huế",
      "lat": 16.47,
      "lng": 107.58,
      "type": "capital",
      "rank": 4,
      "country": "Vietnam"
    },
    {
      "name": "Ilorin",
      "lat": 8.492,
      "lng": 4.548,
      "type": "capital",
      "rank": 4,
      "country": "Nigeria"
    },
    {
      "name": "Ipoh",
      "lat": 4.6,
      "lng": 101.065,
      "type": "capital",
      "rank": 4,
      "country": "Malaysia"
    },
    {
      "name": "Irbid",
      "lat": 32.55,
      "lng": 35.85,
      "type": "capital",
      "rank": 4,
      "country": "Jordan"
    },
    {
      "name": "Irkutsk",
      "lat": 52.2846,
      "lng": 104.2839,
      "type": "capital",
      "rank": 4,
      "country": "Russia"
    },
    {
      "name": "Ismailia",
      "lat": 30.5903,
      "lng": 32.26,
      "type": "capital",
      "rank": 4,
      "country": "Egypt"
    },
    {
      "name": "Izhevsk",
      "lat": 56.85,
      "lng": 53.23,
      "type": "capital",
      "rank": 4,
      "country": "Russia"
    },
    {
      "name": "Jalalabad",
      "lat": 34.4415,
      "lng": 70.4361,
      "type": "capital",
      "rank": 4,
      "country": "Afghanistan"
    },
    {
      "name": "Jeonju",
      "lat": 35.8314,
      "lng": 127.1404,
      "type": "capital",
      "rank": 4,
      "country": "South Korea"
    },
    {
      "name": "Johor Bahru",
      "lat": 1.482,
      "lng": 103.7281,
      "type": "capital",
      "rank": 4,
      "country": "Malaysia"
    },
    {
      "name": "Jos",
      "lat": 9.93,
      "lng": 8.89,
      "type": "capital",
      "rank": 4,
      "country": "Nigeria"
    },
    {
      "name": "João Pessoa",
      "lat": -7.0992,
      "lng": -34.878,
      "type": "capital",
      "rank": 4,
      "country": "Brazil"
    },
    {
      "name": "Kagoshima",
      "lat": 31.586,
      "lng": 130.5611,
      "type": "capital",
      "rank": 4,
      "country": "Japan"
    },
    {
      "name": "Kampala",
      "lat": 0.3186,
      "lng": 32.5814,
      "type": "capital",
      "rank": 4,
      "country": "Uganda",
      "national": true
    },
    {
      "name": "Kananga",
      "lat": -5.8881,
      "lng": 22.3981,
      "type": "capital",
      "rank": 4,
      "country": "Congo (Kinshasa)"
    },
    {
      "name": "Kanazawa",
      "lat": 36.56,
      "lng": 136.64,
      "type": "capital",
      "rank": 4,
      "country": "Japan"
    },
    {
      "name": "Kandahar",
      "lat": 31.61,
      "lng": 65.6949,
      "type": "capital",
      "rank": 4,
      "country": "Afghanistan"
    },
    {
      "name": "Karbala",
      "lat": 32.6149,
      "lng": 44.0245,
      "type": "capital",
      "rank": 4,
      "country": "Iraq"
    },
    {
      "name": "Kathmandu",
      "lat": 27.7186,
      "lng": 85.3147,
      "type": "capital",
      "rank": 4,
      "country": "Nepal",
      "national": true
    },
    {
      "name": "Kayseri",
      "lat": 38.735,
      "lng": 35.49,
      "type": "capital",
      "rank": 4,
      "country": "Turkey"
    },
    {
      "name": "Keelung",
      "lat": 25.1333,
      "lng": 121.7333,
      "type": "capital",
      "rank": 4,
      "country": "Taiwan"
    },
    {
      "name": "Kenitra",
      "lat": 34.2704,
      "lng": -6.58,
      "type": "capital",
      "rank": 4,
      "country": "Morocco"
    },
    {
      "name": "Kerman",
      "lat": 30.3,
      "lng": 57.08,
      "type": "capital",
      "rank": 4,
      "country": "Iran"
    },
    {
      "name": "Kermanshah",
      "lat": 34.382,
      "lng": 47.0581,
      "type": "capital",
      "rank": 4,
      "country": "Iran"
    },
    {
      "name": "Khabarovsk",
      "lat": 48.455,
      "lng": 135.12,
      "type": "capital",
      "rank": 4,
      "country": "Russia"
    },
    {
      "name": "Kirkuk",
      "lat": 35.4722,
      "lng": 44.3923,
      "type": "capital",
      "rank": 4,
      "country": "Iraq"
    },
    {
      "name": "Kisangani",
      "lat": 0.52,
      "lng": 25.22,
      "type": "capital",
      "rank": 4,
      "country": "Congo (Kinshasa)"
    },
    {
      "name": "Kitakyūshū",
      "lat": 33.8704,
      "lng": 130.82,
      "type": "capital",
      "rank": 4,
      "country": "Japan"
    },
    {
      "name": "Klang",
      "lat": 3.0433,
      "lng": 101.4471,
      "type": "capital",
      "rank": 4,
      "country": "Malaysia"
    },
    {
      "name": "Konya",
      "lat": 37.877,
      "lng": 32.4731,
      "type": "capital",
      "rank": 4,
      "country": "Turkey"
    },
    {
      "name": "Kota Bharu",
      "lat": 6.12,
      "lng": 102.23,
      "type": "capital",
      "rank": 4,
      "country": "Malaysia"
    },
    {
      "name": "Kota Kinabalu",
      "lat": 5.98,
      "lng": 116.11,
      "type": "capital",
      "rank": 4,
      "country": "Malaysia"
    },
    {
      "name": "Kraków",
      "lat": 50.0619,
      "lng": 19.9581,
      "type": "capital",
      "rank": 4,
      "country": "Poland"
    },
    {
      "name": "Krasnodar",
      "lat": 45.02,
      "lng": 39.0,
      "type": "capital",
      "rank": 4,
      "country": "Russia"
    },
    {
      "name": "Krasnoyarsk",
      "lat": 56.0159,
      "lng": 92.8641,
      "type": "capital",
      "rank": 4,
      "country": "Russia"
    },
    {
      "name": "Kuching",
      "lat": 1.53,
      "lng": 110.33,
      "type": "capital",
      "rank": 4,
      "country": "Malaysia"
    },
    {
      "name": "Kumamoto",
      "lat": 32.8009,
      "lng": 130.7006,
      "type": "capital",
      "rank": 4,
      "country": "Japan"
    },
    {
      "name": "La Plata",
      "lat": -34.9233,
      "lng": -57.9544,
      "type": "capital",
      "rank": 4,
      "country": "Argentina"
    },
    {
      "name": "Latakia",
      "lat": 35.54,
      "lng": 35.78,
      "type": "capital",
      "rank": 4,
      "country": "Syria"
    },
    {
      "name": "Libreville",
      "lat": 0.3854,
      "lng": 9.458,
      "type": "capital",
      "rank": 4,
      "country": "Gabon",
      "national": true
    },
    {
      "name": "Lilongwe",
      "lat": -13.9833,
      "lng": 33.7833,
      "type": "capital",
      "rank": 4,
      "country": "Malawi",
      "national": true
    },
    {
      "name": "Lipetsk",
      "lat": 52.62,
      "lng": 39.64,
      "type": "capital",
      "rank": 4,
      "country": "Russia"
    },
    {
      "name": "Lisbon",
      "lat": 38.7247,
      "lng": -9.1468,
      "type": "capital",
      "rank": 4,
      "country": "Portugal",
      "national": true
    },
    {
      "name": "Liège",
      "lat": 50.63,
      "lng": 5.58,
      "type": "capital",
      "rank": 4,
      "country": "Belgium"
    },
    {
      "name": "Lomé",
      "lat": 6.1339,
      "lng": 1.2208,
      "type": "capital",
      "rank": 4,
      "country": "Togo",
      "national": true
    },
    {
      "name": "Lviv",
      "lat": 49.835,
      "lng": 24.03,
      "type": "capital",
      "rank": 4,
      "country": "Ukraine"
    },
    {
      "name": "Maiduguri",
      "lat": 11.8519,
      "lng": 13.1581,
      "type": "capital",
      "rank": 4,
      "country": "Nigeria"
    },
    {
      "name": "Makhachkala",
      "lat": 42.98,
      "lng": 47.5,
      "type": "capital",
      "rank": 4,
      "country": "Russia"
    },
    {
      "name": "Managua",
      "lat": 12.155,
      "lng": -86.2704,
      "type": "capital",
      "rank": 4,
      "country": "Nicaragua",
      "national": true
    },
    {
      "name": "Manila",
      "lat": 14.6061,
      "lng": 120.9803,
      "type": "capital",
      "rank": 4,
      "country": "Philippines",
      "national": true
    },